%time,field.transforms0.header.seq,field.transforms0.header.stamp,field.transforms0.header.frame_id,field.transforms0.child_frame_id,field.transforms0.transform.translation.x,field.transforms0.transform.translation.y,field.transforms0.transform.translation.z,field.transforms0.transform.rotation.x,field.transforms0.transform.rotation.y,field.transforms0.transform.rotation.z,field.transforms0.transform.rotation.w
1535039704829299937,0,1535039704750603927,world,hand,-0.326380550861,-0.164203584194,1.18938851357,-0.0517892129719,0.0844454839826,-0.961027741432,-0.258094161749
1535039704831635215,0,1535039704822983879,kinect2_link,kinect2_rgb_optical_frame,0.0,0.0,0.0,0.0,0.0,0.0,1.0
1535039704831965817,0,1535039704822983879,kinect2_rgb_optical_frame,kinect2_ir_optical_frame,-0.0519399138017,0.00333959742795,0.00875866802314,-0.00453113942441,-0.00375492295549,0.00308026364555,0.999977940409
1535039704832103560,0,1535039704750613487,world,checkerboard,2.42786073685,0.800563812256,1.53562569618,-0.374824136496,-0.639170765877,-0.600156843662,-0.301296293736
1535039704832140607,0,1535039704750617699,world,kinect2_mocap,0.104188159108,-1.32810711861,1.35404622555,-0.0314116291702,-0.0021209823899,0.0574135780334,-0.997853934765
1535039704835770242,0,1535039704835626316,kinect2_link,kinect2_rgb_optical_frame,0.0,0.0,0.0,0.0,0.0,0.0,1.0
1535039704835782882,0,1535039704835626316,kinect2_rgb_optical_frame,kinect2_ir_optical_frame,-0.0519399138017,0.00333959742795,0.00875866802314,-0.00453113942441,-0.00375492295549,0.00308026364555,0.999977940409
1535039704839573541,0,1535039704760902367,world,hand,-0.332598268986,-0.163444906473,1.19246995449,-0.056699808687,0.0845701694489,-0.959523200989,-0.262579858303
1535039704841724589,0,1535039704760912033,world,checkerboard,2.42785167694,0.800583302975,1.53560316563,-0.3748883605,-0.639296293259,-0.600042283535,-0.30117815733
1535039704841735360,0,1535039704760987015,world,kinect2_mocap,0.104187749326,-1.32810711861,1.35404598713,-0.0314130336046,-0.00212146877311,0.057412840426,-0.997853934765
1535039704841753201,0,1535039704761011742,world,hand,-0.338761508465,-0.162732601166,1.19573044777,-0.0570748709142,0.0840442478657,-0.958238482475,-0.267316550016
1535039704841758079,0,1535039704761016546,world,checkerboard,2.42786502838,0.800590217113,1.53560388088,-0.374853670597,-0.639286220074,-0.600048899651,-0.301229596138
1535039704841782779,0,1535039704761020198,world,kinect2_mocap,0.10418727994,-1.32810711861,1.35404598713,-0.0314130559564,-0.00212164409459,0.0574122257531,-0.997854053974
1535039704845855466,0,1535039704845706746,kinect2_link,kinect2_rgb_optical_frame,0.0,0.0,0.0,0.0,0.0,0.0,1.0
1535039704845868872,0,1535039704845706746,kinect2_rgb_optical_frame,kinect2_ir_optical_frame,-0.0519399138017,0.00333959742795,0.00875866802314,-0.00453113942441,-0.00375492295549,0.00308026364555,0.999977940409
1535039704848882431,0,1535039704770282982,world,hand,-0.345116943121,-0.162095367908,1.19921720028,-0.0591932237148,0.0848732739687,-0.956770658493,-0.271813809872
1535039704850551686,0,1535039704770326542,world,checkerboard,2.42784762383,0.800571024418,1.53559470177,-0.374963879585,-0.639253735542,-0.599974453449,-0.301309585571
1535039704850558913,0,1535039704770339433,world,kinect2_mocap,0.104186855257,-1.32810688019,1.35404622555,-0.0314125083387,-0.00212119449861,0.0574114508927,-0.997854053974
1535039704856009417,0,1535039704855787958,kinect2_link,kinect2_rgb_optical_frame,0.0,0.0,0.0,0.0,0.0,0.0,1.0
1535039704856024866,0,1535039704855787958,kinect2_rgb_optical_frame,kinect2_ir_optical_frame,-0.0519399138017,0.00333959742795,0.00875866802314,-0.00453113942441,-0.00375492295549,0.00308026364555,0.999977940409
1535039704859275264,0,1535039704780598429,world,hand,-0.351131826639,-0.161518022418,1.2029184103,-0.058327589184,0.0865970626473,-0.9547098279,-0.278618186712
1535039704861435796,0,1535039704780611647,world,checkerboard,2.42785930634,0.800572037697,1.53558421135,-0.374843895435,-0.639309465885,-0.60002630949,-0.301237225533
1535039704861449663,0,1535039704780618319,world,kinect2_mocap,0.104186430573,-1.32810664177,1.35404646397,-0.0314112082124,-0.00212073582225,0.0574114248157,-0.997854053974
1535039704866086122,0,1535039704865892134,kinect2_link,kinect2_rgb_optical_frame,0.0,0.0,0.0,0.0,0.0,0.0,1.0
1535039704866097805,0,1535039704865892134,kinect2_rgb_optical_frame,kinect2_ir_optical_frame,-0.0519399138017,0.00333959742795,0.00875866802314,-0.00453113942441,-0.00375492295549,0.00308026364555,0.999977940409
1535039704869273242,0,1535039704790806928,world,hand,-0.357501536608,-0.160873964429,1.2065372467,-0.0590392053127,0.0856006368995,-0.954064369202,-0.280977040529
1535039704871473892,0,1535039704790837197,world,checkerboard,2.4278550148,0.800586223602,1.53559112549,-0.374911755323,-0.639286756516,-0.599990487099,-0.301272332668
1535039704871524450,0,1535039704790852570,world,kinect2_mocap,0.104186199605,-1.32810640335,1.35404670238,-0.0314102545381,-0.00212039775215,0.0574111901224,-0.997854173183
1535039704876137176,0,1535039704875987512,kinect2_link,kinect2_rgb_optical_frame,0.0,0.0,0.0,0.0,0.0,0.0,1.0
1535039704876146131,0,1535039704875987512,kinect2_rgb_optical_frame,kinect2_ir_optical_frame,-0.0519399138017,0.00333959742795,0.00875866802314,-0.00453113942441,-0.00375492295549,0.00308026364555,0.999977940409
1535039704878547160,0,1535039704800090728,world,hand,-0.363446861506,-0.160374224186,1.21050560474,-0.062322948128,0.0855257287621,-0.952623546124,-0.285148799419
1535039704880791173,0,1535039704800122309,world,checkerboard,2.42785143852,0.800580978394,1.53559815884,-0.374867677689,-0.639278233051,-0.600044846535,-0.301237046719
1535039704880802880,0,1535039704800129635,world,kinect2_mocap,0.104185961187,-1.32810640335,1.35404670238,-0.0314075239003,-0.00211943080649,0.0574119724333,-0.997854173183
1535039704886326477,0,1535039704886070706,kinect2_link,kinect2_rgb_optical_frame,0.0,0.0,0.0,0.0,0.0,0.0,1.0
1535039704886339974,0,1535039704886070706,kinect2_rgb_optical_frame,kinect2_ir_optical_frame,-0.0519399138017,0.00333959742795,0.00875866802314,-0.00453113942441,-0.00375492295549,0.00308026364555,0.999977940409
1535039704888979035,0,1535039704810387165,world,hand,-0.369219243526,-0.159901335835,1.21468698978,-0.0673169344664,0.0857599377632,-0.951163470745,-0.28879365325
1535039704891531872,0,1535039704810418943,world,checkerboard,2.42785429955,0.800588190556,1.53561460972,-0.374878078699,-0.639192044735,-0.600071072578,-0.301355004311
1535039704891550352,0,1535039704810426569,world,kinect2_mocap,0.10418587178,-1.32810640335,1.3540469408,-0.0314059481025,-0.00211873045191,0.057412751019,-0.997854173183
1535039704891568259,0,1535039704810435315,world,hand,-0.374916315079,-0.159419700503,1.21908152103,-0.0740733221173,0.085713006556,-0.94965493679,-0.29209959507
1535039704891596470,0,1535039704810440332,world,checkerboard,2.42785978317,0.800590753555,1.53560209274,-0.374946504831,-0.639251112938,-0.600015103817,-0.301255941391
1535039704891618970,0,1535039704810445477,world,kinect2_mocap,0.104185633361,-1.32810664177,1.3540469408,-0.0314057171345,-0.00211846758612,0.0574125833809,-0.997854173183
1535039704896751292,0,1535039704896210341,kinect2_link,kinect2_rgb_optical_frame,0.0,0.0,0.0,0.0,0.0,0.0,1.0
1535039704896764486,0,1535039704896210341,kinect2_rgb_optical_frame,kinect2_ir_optical_frame,-0.0519399138017,0.00333959742795,0.00875866802314,-0.00453113942441,-0.00375492295549,0.00308026364555,0.999977940409
1535039704899190822,0,1535039704820639545,world,hand,-0.38049313426,-0.159035980701,1.22361922264,-0.0774666145444,0.0843412131071,-0.948058009148,-0.296768546104
1535039704901654681,0,1535039704820671228,world,checkerboard,2.42786216736,0.8006092906,1.53557193279,-0.37489849329,-0.639274775982,-0.600015580654,-0.301264256239
1535039704901673608,0,1535039704820679224,world,kinect2_mocap,0.10418548435,-1.32810688019,1.3540469408,-0.0314048342407,-0.00211860518903,0.0574125610292,-0.997854292393
1535039704901680134,0,1535039704943072738,/kinect2_mocap,/kinect2_link,0.0801417617159,0.0689299826583,-0.011685626472,-0.704332345391,-0.0271284587477,0.0479526774544,0.707729139351
1535039704906465387,0,1535039704906299391,kinect2_link,kinect2_rgb_optical_frame,0.0,0.0,0.0,0.0,0.0,0.0,1.0
1535039704906474296,0,1535039704906299391,kinect2_rgb_optical_frame,kinect2_ir_optical_frame,-0.0519399138017,0.00333959742795,0.00875866802314,-0.00453113942441,-0.00375492295549,0.00308026364555,0.999977940409
1535039704909371122,0,1535039704830957236,world,hand,-0.386079609394,-0.158587157726,1.22844231129,-0.0825839564204,0.0831385403872,-0.946577727795,-0.300430774689
1535039704911521509,0,1535039704831047632,world,checkerboard,2.42787361145,0.800615906715,1.5355682373,-0.374968647957,-0.639203667641,-0.600004434586,-0.301350235939
1535039704911527338,0,1535039704831095261,world,kinect2_mocap,0.104185335338,-1.32810735703,1.35404670238,-0.0314046740532,-0.00211839168333,0.0574122332036,-0.997854292393
1535039704916531040,0,1535039704916380598,kinect2_link,kinect2_rgb_optical_frame,0.0,0.0,0.0,0.0,0.0,0.0,1.0
1535039704916546442,0,1535039704916380598,kinect2_rgb_optical_frame,kinect2_ir_optical_frame,-0.0519399138017,0.00333959742795,0.00875866802314,-0.00453113942441,-0.00375492295549,0.00308026364555,0.999977940409
1535039704918751154,0,1535039704840321645,world,hand,-0.391625255346,-0.158260896802,1.23350632191,-0.0859349891543,0.0816862657666,-0.9447016716,-0.305747061968
1535039704921128383,0,1535039704840352808,world,checkerboard,2.42787957191,0.800662398338,1.53553891182,-0.37496176362,-0.63920879364,-0.600006103516,-0.301344573498
1535039704921144583,0,1535039704840360569,world,kinect2_mocap,0.104185260832,-1.32810783386,1.35404646397,-0.031404286623,-0.00211840844713,0.0574116669595,-0.997854292393
1535039704929467137,0,1535039704850631943,world,hand,-0.397203415632,-0.157872080803,1.23879432678,-0.08886025846,0.0800102353096,-0.943266034126,-0.309760421515
1535039704930679269,0,1535039704926506445,kinect2_link,kinect2_rgb_optical_frame,0.0,0.0,0.0,0.0,0.0,0.0,1.0
1535039704930859471,0,1535039704926506445,kinect2_rgb_optical_frame,kinect2_ir_optical_frame,-0.0519399138017,0.00333959742795,0.00875866802314,-0.00453113942441,-0.00375492295549,0.00308026364555,0.999977940409
1535039704932642946,0,1535039704850665337,world,checkerboard,2.42785573006,0.80063354969,1.53554427624,-0.374890208244,-0.639270722866,-0.600005984306,-0.301302611828
1535039704932653536,0,1535039704850673219,world,kinect2_mocap,0.104185141623,-1.3281083107,1.35404622555,-0.0314043797553,-0.00211847410537,0.0574113801122,-0.997854292393
1535039704936759800,0,1535039704936611688,kinect2_link,kinect2_rgb_optical_frame,0.0,0.0,0.0,0.0,0.0,0.0,1.0
1535039704936773342,0,1535039704936611688,kinect2_rgb_optical_frame,kinect2_ir_optical_frame,-0.0519399138017,0.00333959742795,0.00875866802314,-0.00453113942441,-0.00375492295549,0.00308026364555,0.999977940409
1535039704939598770,0,1535039704860951450,world,hand,-0.402860611677,-0.157582134008,1.24437987804,-0.0903794169426,0.0784438699484,-0.942152023315,-0.313093721867
1535039704941611760,0,1535039704860984156,world,checkerboard,2.42784833908,0.80062764883,1.53552603722,-0.374954491854,-0.639378905296,-0.599892318249,-0.301219284534
1535039704941618244,0,1535039704860992246,world,kinect2_mocap,0.104185156524,-1.32810854912,1.35404598713,-0.0314043276012,-0.00211857678369,0.0574114583433,-0.997854292393
1535039704941644363,0,1535039704861003126,world,hand,-0.408040225506,-0.157481208444,1.24995756149,-0.0921349078417,0.0739996358752,-0.939172267914,-0.322476029396
1535039704941650203,0,1535039704861008335,world,checkerboard,2.42783498764,0.800594449043,1.53554236889,-0.374989718199,-0.639371216297,-0.599843800068,-0.301288217306
1535039704941655182,0,1535039704861013507,world,kinect2_mocap,0.104185007513,-1.32810878754,1.35404598713,-0.0314045697451,-0.00211886479519,0.0574110001326,-0.997854292393
1535039704946828738,0,1535039704946696660,kinect2_link,kinect2_rgb_optical_frame,0.0,0.0,0.0,0.0,0.0,0.0,1.0
1535039704946841182,0,1535039704946696660,kinect2_rgb_optical_frame,kinect2_ir_optical_frame,-0.0519399138017,0.00333959742795,0.00875866802314,-0.00453113942441,-0.00375492295549,0.00308026364555,0.999977940409
1535039704948819534,0,1535039704870233570,world,hand,-0.413651436567,-0.157183766365,1.25597035885,-0.090500511229,0.0723285898566,-0.937867164612,-0.327083289623
1535039704951261431,0,1535039704870265481,world,checkerboard,2.42785167694,0.800612926483,1.53552782536,-0.374968230724,-0.639372944832,-0.599855840206,-0.301287204027
1535039704951278928,0,1535039704870272979,world,kinect2_mocap,0.104185007513,-1.32810878754,1.35404598713,-0.0314039774239,-0.00211904430762,0.0574111826718,-0.997854411602
1535039704959208210,0,1535039704880541316,world,hand,-0.41909584403,-0.156977295876,1.26222169399,-0.0897183269262,0.0703334733844,-0.93657964468,-0.331394731998
1535039704959244833,0,1535039704957068495,kinect2_link,kinect2_rgb_optical_frame,0.0,0.0,0.0,0.0,0.0,0.0,1.0
1535039704959361391,0,1535039704957068495,kinect2_rgb_optical_frame,kinect2_ir_optical_frame,-0.0519399138017,0.00333959742795,0.00875866802314,-0.00453113942441,-0.00375492295549,0.00308026364555,0.999977940409
1535039704961219473,0,1535039704880577405,world,checkerboard,2.4278550148,0.80061262846,1.53553009033,-0.374963998795,-0.639344871044,-0.599876105785,-0.301311790943
1535039704961249477,0,1535039704880585576,world,kinect2_mocap,0.104185067117,-1.32810878754,1.35404598713,-0.0314019806683,-0.00211894488893,0.0574115738273,-0.997854411602
1535039704969208411,0,1535039704969097826,kinect2_link,kinect2_rgb_optical_frame,0.0,0.0,0.0,0.0,0.0,0.0,1.0
1535039704969220399,0,1535039704969097826,kinect2_rgb_optical_frame,kinect2_ir_optical_frame,-0.0519399138017,0.00333959742795,0.00875866802314,-0.00453113942441,-0.00375492295549,0.00308026364555,0.999977940409
1535039704969400072,0,1535039704890816941,world,hand,-0.424267143011,-0.156877219677,1.2686766386,-0.0920520424843,0.0683873668313,-0.934960842133,-0.33570510149
1535039704971947198,0,1535039704890845836,world,checkerboard,2.42785930634,0.800595402718,1.53552985191,-0.375015258789,-0.639326512814,-0.599877178669,-0.301284998655
1535039704971955436,0,1535039704890853808,world,kinect2_mocap,0.104185260832,-1.32810854912,1.35404598713,-0.031400423497,-0.00211918866262,0.0574119314551,-0.997854411602
1535039704978676319,0,1535039704900168174,world,hand,-0.42918753624,-0.156961798668,1.27539432049,-0.096321105957,0.0667010992765,-0.933179199696,-0.33977907896
1535039704979332969,0,1535039704979175868,kinect2_link,kinect2_rgb_optical_frame,0.0,0.0,0.0,0.0,0.0,0.0,1.0
1535039704979342633,0,1535039704979175868,kinect2_rgb_optical_frame,kinect2_ir_optical_frame,-0.0519399138017,0.00333959742795,0.00875866802314,-0.00453113942441,-0.00375492295549,0.00308026364555,0.999977940409
1535039704980853445,0,1535039704900204302,world,checkerboard,2.42784667015,0.800589621067,1.5355206728,-0.374978870153,-0.639419794083,-0.599812507629,-0.301260858774
1535039704980867748,0,1535039704900212103,world,kinect2_mocap,0.104185633361,-1.32810807228,1.35404551029,-0.0313997417688,-0.00211989693344,0.0574125610292,-0.997854411602
1535039704989061111,0,1535039704910548030,world,hand,-0.433824300766,-0.157077595592,1.28237819672,-0.101717323065,0.0654076784849,-0.931330680847,-0.343509346247
1535039704989358002,0,1535039704989253404,kinect2_link,kinect2_rgb_optical_frame,0.0,0.0,0.0,0.0,0.0,0.0,1.0
1535039704989368133,0,1535039704989253404,kinect2_rgb_optical_frame,kinect2_ir_optical_frame,-0.0519399138017,0.00333959742795,0.00875866802314,-0.00453113942441,-0.00375492295549,0.00308026364555,0.999977940409
1535039704991320303,0,1535039704910581477,world,checkerboard,2.42783784866,0.800590395927,1.53555285931,-0.375017076731,-0.63941603899,-0.599815905094,-0.301214575768
1535039704991331299,0,1535039704910588318,world,kinect2_mocap,0.104189574718,-1.32810664177,1.35404312611,-0.0313811935484,-0.00210175407119,0.0574208721519,-0.997854530811
1535039704991335044,0,1535039704910597043,world,hand,-0.438298970461,-0.15724927187,1.28968811035,-0.105759695172,0.0633301585913,-0.929262757301,-0.348245710135
1535039704991348119,0,1535039704910601765,world,checkerboard,2.42784357071,0.800588190556,1.53558409214,-0.374958783388,-0.639348983765,-0.599887788296,-0.301286369562
1535039704991357551,0,1535039704910606538,world,kinect2_mocap,0.104193292558,-1.32810497284,1.3540405035,-0.0313627682626,-0.00208334182389,0.0574291981757,-0.997854650021
1535039704999443487,0,1535039704920894017,world,hand,-0.442827790976,-0.157349154353,1.29720234871,-0.111586242914,0.0590497329831,-0.927835941315,-0.35097309947
1535039705000635452,0,1535039704999338042,kinect2_link,kinect2_rgb_optical_frame,0.0,0.0,0.0,0.0,0.0,0.0,1.0
1535039705000645790,0,1535039704999338042,kinect2_rgb_optical_frame,kinect2_ir_optical_frame,-0.0519399138017,0.00333959742795,0.00875866802314,-0.00453113942441,-0.00375492295549,0.00308026364555,0.999977940409
1535039705001367250,0,1535039704920926149,world,checkerboard,2.4278318882,0.800577521324,1.53559076786,-0.374956727028,-0.639296472073,-0.599950313568,-0.301275938749
1535039705001380735,0,1535039704920933332,world,kinect2_mocap,0.104196846485,-1.32810354233,1.35403811932,-0.0313452705741,-0.00206496776082,0.0574370808899,-0.99785476923
1535039705008840045,0,1535039704930213532,world,hand,-0.447226941586,-0.157434538007,1.30518817902,-0.112354487181,0.0561203025281,-0.925842940807,-0.356429368258
1535039705010876282,0,1535039705009430532,kinect2_link,kinect2_rgb_optical_frame,0.0,0.0,0.0,0.0,0.0,0.0,1.0
1535039705010886234,0,1535039705009430532,kinect2_rgb_optical_frame,kinect2_ir_optical_frame,-0.0519399138017,0.00333959742795,0.00875866802314,-0.00453113942441,-0.00375492295549,0.00308026364555,0.999977940409
1535039705010893801,0,1535039704930277044,world,checkerboard,2.42784070969,0.800571739674,1.53559339046,-0.374954015017,-0.639327526093,-0.599937200546,-0.301239341497
1535039705010899706,0,1535039704930294412,world,kinect2_mocap,0.104196853936,-1.32810330391,1.3540378809,-0.0313468761742,-0.00206585857086,0.0574365444481,-0.99785476923
1535039705019103385,0,1535039704940567216,world,hand,-0.45166733861,-0.157477602363,1.31345617771,-0.113406121731,0.0511301569641,-0.924618542194,-0.360007345676
1535039705021429502,0,1535039704940580142,world,checkerboard,2.42785692215,0.800592958927,1.53557133675,-0.374903827906,-0.639311909676,-0.599983453751,-0.301243066788
1535039705021470187,0,1535039704940613701,world,kinect2_mocap,0.104196682572,-1.32810354233,1.3540378809,-0.0313495136797,-0.00206723972224,0.0574356652796,-0.99785476923
1535039705021929127,0,1535039705063190892,/kinect2_mocap,/kinect2_link,0.0801417617159,0.0689299826583,-0.011685626472,-0.704332345391,-0.0271284587477,0.0479526774544,0.707729139351
1535039705023450937,0,1535039705019695866,kinect2_link,kinect2_rgb_optical_frame,0.0,0.0,0.0,0.0,0.0,0.0,1.0
1535039705023462500,0,1535039705019695866,kinect2_rgb_optical_frame,kinect2_ir_optical_frame,-0.0519399138017,0.00333959742795,0.00875866802314,-0.00453113942441,-0.00375492295549,0.00308026364555,0.999977940409
1535039705029986703,0,1535039705029811202,kinect2_link,kinect2_rgb_optical_frame,0.0,0.0,0.0,0.0,0.0,0.0,1.0
1535039705029997169,0,1535039705029811202,kinect2_rgb_optical_frame,kinect2_ir_optical_frame,-0.0519399138017,0.00333959742795,0.00875866802314,-0.00453113942441,-0.00375492295549,0.00308026364555,0.999977940409
1535039705031215564,0,1535039704950902966,world,hand,-0.456132054329,-0.157436951995,1.32204663754,-0.113734014332,0.0452321283519,-0.923576772213,-0.363351911306
1535039705033265006,0,1535039704950913650,world,checkerboard,2.42783379555,0.800584495068,1.53555643559,-0.374864935875,-0.639398157597,-0.599965035915,-0.301145046949
1535039705033279712,0,1535039704950978611,world,kinect2_mocap,0.104196377099,-1.32810378075,1.35403764248,-0.0313496552408,-0.00206822622567,0.0574351251125,-0.99785476923
1535039705038806969,0,1535039704960190670,world,hand,-0.460447669029,-0.157386645675,1.33099985123,-0.109367281199,0.0402414277196,-0.922296464443,-0.368495196104
1535039705040081831,0,1535039705039921037,kinect2_link,kinect2_rgb_optical_frame,0.0,0.0,0.0,0.0,0.0,0.0,1.0
1535039705040095795,0,1535039705039921037,kinect2_rgb_optical_frame,kinect2_ir_optical_frame,-0.0519399138017,0.00333959742795,0.00875866802314,-0.00453113942441,-0.00375492295549,0.00308026364555,0.999977940409
1535039705041094064,0,1535039704960201849,world,checkerboard,2.42783761024,0.800579071045,1.53555810452,-0.374890565872,-0.639321386814,-0.599998354912,-0.301209688187
1535039705041100021,0,1535039704960233147,world,kinect2_mocap,0.104196034372,-1.32810378075,1.35403740406,-0.0313517153263,-0.00206966302358,0.0574341863394,-0.99785476923
1535039705041105347,0,1535039704960241325,world,hand,-0.464630514383,-0.157458782196,1.34015822411,-0.10609818995,0.0345167703927,-0.921396911144,-0.372262626886
1535039705041115993,0,1535039704960245001,world,checkerboard,2.42783260345,0.800588309765,1.53556847572,-0.374889671803,-0.639352440834,-0.599953591824,-0.301233917475
1535039705041130290,0,1535039704960248283,world,kinect2_mocap,0.104195699096,-1.32810378075,1.35403740406,-0.0313536934555,-0.0020716090221,0.0574332252145,-0.99785476923
1535039705048969155,0,1535039704970444726,world,hand,-0.468440979719,-0.157484769821,1.34940993786,-0.107919968665,0.0289260093123,-0.920111179352,-0.375382661819
1535039705051276480,0,1535039704970455167,world,checkerboard,2.42784953117,0.800614476204,1.53556406498,-0.374820381403,-0.639284551144,-0.600079953671,-0.301212638617
1535039705051297856,0,1535039704970459343,world,kinect2_mocap,0.104195289314,-1.32810378075,1.35403740406,-0.0313549116254,-0.00207353616133,0.0574323795736,-0.99785476923
1535039705053181819,0,1535039705050056896,kinect2_link,kinect2_rgb_optical_frame,0.0,0.0,0.0,0.0,0.0,0.0,1.0
1535039705053192999,0,1535039705050056896,kinect2_rgb_optical_frame,kinect2_ir_optical_frame,-0.0519399138017,0.00333959742795,0.00875866802314,-0.00453113942441,-0.00375492295549,0.00308026364555,0.999977940409
1535039705059202984,0,1535039704980640175,world,hand,-0.471588045359,-0.157725453377,1.35869145393,-0.113536566496,0.0239992477,-0.917752206326,-0.379821568727
1535039705060409326,0,1535039705060186326,kinect2_link,kinect2_rgb_optical_frame,0.0,0.0,0.0,0.0,0.0,0.0,1.0
1535039705060424254,0,1535039705060186326,kinect2_rgb_optical_frame,kinect2_ir_optical_frame,-0.0519399138017,0.00333959742795,0.00875866802314,-0.00453113942441,-0.00375492295549,0.00308026364555,0.999977940409
1535039705061201438,0,1535039704980649571,world,checkerboard,2.42784738541,0.800584733486,1.53555333614,-0.374902755022,-0.639362990856,-0.599937677383,-0.301227152348
1535039705061211627,0,1535039704980653772,world,kinect2_mocap,0.10419498384,-1.32810354233,1.35403740406,-0.0313574038446,-0.00207504397258,0.0574317537248,-0.99785476923
1535039705069406752,0,1535039704990850044,world,hand,-0.474476218224,-0.158077836037,1.36816799641,-0.120862275362,0.019681038335,-0.91547036171,-0.383300215006
1535039705070428449,0,1535039705070314439,kinect2_link,kinect2_rgb_optical_frame,0.0,0.0,0.0,0.0,0.0,0.0,1.0
1535039705070436656,0,1535039705070314439,kinect2_rgb_optical_frame,kinect2_ir_optical_frame,-0.0519399138017,0.00333959742795,0.00875866802314,-0.00453113942441,-0.00375492295549,0.00308026364555,0.999977940409
1535039705071851122,0,1535039704990861152,world,checkerboard,2.42785358429,0.800603926182,1.53553795815,-0.374910622835,-0.639355778694,-0.599924206734,-0.301259458065
1535039705071859639,0,1535039704990865473,world,kinect2_mocap,0.104194752872,-1.32810330391,1.35403764248,-0.031358756125,-0.00207630195655,0.0574311651289,-0.99785476923
1535039705078481890,0,1535039705000018283,world,hand,-0.477038830519,-0.15848685801,1.37773621082,-0.128820121288,0.0152051988989,-0.913046061993,-0.386679619551
1535039705080766559,0,1535039705000517760,world,checkerboard,2.4278409481,0.800592839718,1.53555428982,-0.374924778938,-0.639300704002,-0.59996265173,-0.301282137632
1535039705080774277,0,1535039705000568393,world,kinect2_mocap,0.104194626212,-1.32810330391,1.35403764248,-0.0313596725464,-0.00207748799585,0.0574310384691,-0.997854650021
1535039705084278828,0,1535039705080398282,kinect2_link,kinect2_rgb_optical_frame,0.0,0.0,0.0,0.0,0.0,0.0,1.0
1535039705084293131,0,1535039705080398282,kinect2_rgb_optical_frame,kinect2_ir_optical_frame,-0.0519399138017,0.00333959742795,0.00875866802314,-0.00453113942441,-0.00375492295549,0.00308026364555,0.999977940409
1535039705089496598,0,1535039705010914917,world,hand,-0.479387909174,-0.158905416727,1.3874745369,-0.135462105274,0.0101721975952,-0.910457789898,-0.390657246113
1535039705090767779,0,1535039705090456716,kinect2_link,kinect2_rgb_optical_frame,0.0,0.0,0.0,0.0,0.0,0.0,1.0
1535039705090784459,0,1535039705090456716,kinect2_rgb_optical_frame,kinect2_ir_optical_frame,-0.0519399138017,0.00333959742795,0.00875866802314,-0.00453113942441,-0.00375492295549,0.00308026364555,0.999977940409
1535039705091775038,0,1535039705010940137,world,checkerboard,2.4278409481,0.800585865974,1.53557443619,-0.37491235137,-0.63940012455,-0.599896252155,-0.301218867302
1535039705091787623,0,1535039705010944573,world,kinect2_mocap,0.104194499552,-1.32810330391,1.3540378809,-0.031360629946,-0.00207876088098,0.0574306920171,-0.997854650021
1535039705091793553,0,1535039705010951515,world,hand,-0.481673419476,-0.159196928144,1.39746379852,-0.139890730381,0.00425615767017,-0.908452272415,-0.393861532211
1535039705091813303,0,1535039705010954882,world,checkerboard,2.42784500122,0.8005823493,1.53560125828,-0.374968081713,-0.639317572117,-0.599917531013,-0.301282256842
1535039705091818698,0,1535039705010958234,world,kinect2_mocap,0.104194387794,-1.32810330391,1.35403811932,-0.03136190027,-0.00207984820008,0.0574306994677,-0.997854650021
1535039705098865987,0,1535039705020207268,world,hand,-0.483785778284,-0.159338667989,1.40759825706,-0.141994848847,-0.0022221324034,-0.906724452972,-0.397093623877
1535039705100765855,0,1535039705100552857,kinect2_link,kinect2_rgb_optical_frame,0.0,0.0,0.0,0.0,0.0,0.0,1.0
1535039705100777574,0,1535039705100552857,kinect2_rgb_optical_frame,kinect2_ir_optical_frame,-0.0519399138017,0.00333959742795,0.00875866802314,-0.00453113942441,-0.00375492295549,0.00308026364555,0.999977940409
1535039705100972554,0,1535039705020216520,world,checkerboard,2.4278447628,0.800586402416,1.53560423851,-0.374921798706,-0.639439344406,-0.599886834621,-0.301142513752
1535039705100987244,0,1535039705020281743,world,kinect2_mocap,0.10419421643,-1.32810354233,1.35403859615,-0.031364671886,-0.00208137556911,0.0574305281043,-0.997854530811
1535039705109114480,0,1535039705030535348,world,hand,-0.485772848129,-0.159520566463,1.41794204712,-0.143741965294,-0.00883402861655,-0.905123770237,-0.400013923645
1535039705110764082,0,1535039705110648372,kinect2_link,kinect2_rgb_optical_frame,0.0,0.0,0.0,0.0,0.0,0.0,1.0
1535039705110803147,0,1535039705110648372,kinect2_rgb_optical_frame,kinect2_ir_optical_frame,-0.0519399138017,0.00333959742795,0.00875866802314,-0.00453113942441,-0.00375492295549,0.00308026364555,0.999977940409
1535039705111412115,0,1535039705030550148,world,checkerboard,2.4278626442,0.800576865673,1.53562164307,-0.374900639057,-0.6393840909,-0.599934220314,-0.301191598177
1535039705111420949,0,1535039705030556980,world,kinect2_mocap,0.104193970561,-1.32810378075,1.35403907299,-0.0313672423363,-0.00208263495006,0.057430177927,-0.997854530811
1535039705119420183,0,1535039705040858084,world,hand,-0.487562686205,-0.159642994404,1.4283696413,-0.1447083354,-0.0161971803755,-0.903924763203,-0.402140915394
1535039705121679048,0,1535039705040868313,world,checkerboard,2.42785739899,0.80057901144,1.53564739227,-0.374900579453,-0.639292240143,-0.599988281727,-0.301278978586
1535039705121702104,0,1535039705040872503,world,kinect2_mocap,0.104193747044,-1.32810401917,1.35403954983,-0.0313696861267,-0.00208328175358,0.0574297457933,-0.997854411602
1535039705123089577,0,1535039705120730728,kinect2_link,kinect2_rgb_optical_frame,0.0,0.0,0.0,0.0,0.0,0.0,1.0
1535039705123106116,0,1535039705120730728,kinect2_rgb_optical_frame,kinect2_ir_optical_frame,-0.0519399138017,0.00333959742795,0.00875866802314,-0.00453113942441,-0.00375492295549,0.00308026364555,0.999977940409
1535039705128587068,0,1535039705050065486,world,hand,-0.489078640938,-0.159712404013,1.43890035152,-0.145740732551,-0.0223521701992,-0.901970505714,-0.405843943357
1535039705130953704,0,1535039705130822166,kinect2_link,kinect2_rgb_optical_frame,0.0,0.0,0.0,0.0,0.0,0.0,1.0
1535039705130999569,0,1535039705130822166,kinect2_rgb_optical_frame,kinect2_ir_optical_frame,-0.0519399138017,0.00333959742795,0.00875866802314,-0.00453113942441,-0.00375492295549,0.00308026364555,0.999977940409
1535039705131591806,0,1535039705050077867,world,checkerboard,2.42786598206,0.800567984581,1.53565061092,-0.374900013208,-0.639226675034,-0.600046515465,-0.30130302906
1535039705131600933,0,1535039705050083505,world,kinect2_mocap,0.104193419218,-1.32810425758,1.35404002666,-0.0313731282949,-0.00208430783823,0.0574291162193,-0.997854411602
1535039705139082264,0,1535039705060330812,world,hand,-0.490357041359,-0.159831598401,1.44948554039,-0.147725537419,-0.029752952978,-0.900215506554,-0.408538818359
1535039705141190405,0,1535039705060350770,world,checkerboard,2.42785549164,0.800565361977,1.53565728664,-0.374964416027,-0.639270365238,-0.599987983704,-0.301246613264
1535039705141206603,0,1535039705060359410,world,kinect2_mocap,0.104192972183,-1.328104496,1.3540405035,-0.0313762910664,-0.00208527594805,0.0574287176132,-0.997854292393
1535039705141211512,0,1535039705060370900,world,hand,-0.491532921791,-0.159967601299,1.46026158333,-0.147863104939,-0.0376475714147,-0.89892745018,-0.41066852212
1535039705141217678,0,1535039705060417259,world,checkerboard,2.42784070969,0.800567209721,1.53563404083,-0.374958395958,-0.639314293861,-0.599934101105,-0.301268368959
1535039705141226425,0,1535039705060432712,world,kinect2_mocap,0.104192510247,-1.32810473442,1.35404098034,-0.0313780643046,-0.00208611832932,0.0574285201728,-0.997854292393
1535039705141410709,0,1535039705140908483,kinect2_link,kinect2_rgb_optical_frame,0.0,0.0,0.0,0.0,0.0,0.0,1.0
1535039705141418617,0,1535039705140908483,kinect2_rgb_optical_frame,kinect2_ir_optical_frame,-0.0519399138017,0.00333959742795,0.00875866802314,-0.00453113942441,-0.00375492295549,0.00308026364555,0.999977940409
1535039705141685309,0,1535039705183273994,/kinect2_mocap,/kinect2_link,0.0801417617159,0.0689299826583,-0.011685626472,-0.704332345391,-0.0271284587477,0.0479526774544,0.707729139351
1535039705149226599,0,1535039705070723827,world,hand,-0.492514282465,-0.160010203719,1.47102105618,-0.149196133018,-0.0445755012333,-0.897153973579,-0.413362264633
1535039705151378373,0,1535039705070756247,world,checkerboard,2.42786097527,0.800581634045,1.53562021255,-0.374944746494,-0.639330506325,-0.599953532219,-0.301212251186
1535039705151400460,0,1535039705070764505,world,kinect2_mocap,0.104192025959,-1.32810497284,1.35404145718,-0.031380597502,-0.00208733929321,0.0574276857078,-0.997854173183
1535039705151482221,0,1535039705151004480,kinect2_link,kinect2_rgb_optical_frame,0.0,0.0,0.0,0.0,0.0,0.0,1.0
1535039705151492506,0,1535039705151004480,kinect2_rgb_optical_frame,kinect2_ir_optical_frame,-0.0519399138017,0.00333959742795,0.00875866802314,-0.00453113942441,-0.00375492295549,0.00308026364555,0.999977940409
1535039705158684363,0,1535039705080053877,world,hand,-0.493229717016,-0.16007104516,1.4816660881,-0.150475621223,-0.0502202697098,-0.896065175533,-0.414610952139
1535039705161078462,0,1535039705080086036,world,checkerboard,2.42787194252,0.800601243973,1.53559672832,-0.374877691269,-0.639353871346,-0.599961221218,-0.301230639219
1535039705161089260,0,1535039705080094162,world,kinect2_mocap,0.104191675782,-1.32810521126,1.35404193401,-0.0313830077648,-0.00208851019852,0.057426918298,-0.997854173183
1535039705161238874,0,1535039705161115549,kinect2_link,kinect2_rgb_optical_frame,0.0,0.0,0.0,0.0,0.0,0.0,1.0
1535039705161297389,0,1535039705161115549,kinect2_rgb_optical_frame,kinect2_ir_optical_frame,-0.0519399138017,0.00333959742795,0.00875866802314,-0.00453113942441,-0.00375492295549,0.00308026364555,0.999977940409
1535039705168962757,0,1535039705090375350,world,hand,-0.494017541409,-0.160094425082,1.4926636219,-0.151373133063,-0.059863820672,-0.893228948116,-0.419099867344
1535039705171263577,0,1535039705090389350,world,checkerboard,2.4278717041,0.800602436066,1.53556108475,-0.374873131514,-0.639373958111,-0.599986553192,-0.301143288612
1535039705171278934,0,1535039705090418241,world,kinect2_mocap,0.104191429913,-1.32810544968,1.35404217243,-0.0313850231469,-0.0020893746987,0.0574261322618,-0.997854173183
1535039705171428148,0,1535039705171246463,kinect2_link,kinect2_rgb_optical_frame,0.0,0.0,0.0,0.0,0.0,0.0,1.0
1535039705171437959,0,1535039705171246463,kinect2_rgb_optical_frame,kinect2_ir_optical_frame,-0.0519399138017,0.00333959742795,0.00875866802314,-0.00453113942441,-0.00375492295549,0.00308026364555,0.999977940409
1535039705179234636,0,1535039705100713386,world,hand,-0.494205236435,-0.15999288857,1.5033146143,-0.151545971632,-0.0635723248124,-0.893424272537,-0.418073475361
1535039705181403465,0,1535039705100724484,world,checkerboard,2.42787766457,0.80060249567,1.53555905819,-0.374846577644,-0.639330506325,-0.600023686886,-0.301194518805
1535039705181418495,0,1535039705100778861,world,kinect2_mocap,0.104191169143,-1.3281056881,1.35404241085,-0.0313861221075,-0.00209050043486,0.0574253313243,-0.997854173183
1535039705181646923,0,1535039705181461012,kinect2_link,kinect2_rgb_optical_frame,0.0,0.0,0.0,0.0,0.0,0.0,1.0
1535039705181657682,0,1535039705181461012,kinect2_rgb_optical_frame,kinect2_ir_optical_frame,-0.0519399138017,0.00333959742795,0.00875866802314,-0.00453113942441,-0.00375492295549,0.00308026364555,0.999977940409
1535039705189528413,0,1535039705111016161,world,hand,-0.494985371828,-0.160118848085,1.51441371441,-0.151941105723,-0.0749303400517,-0.889502584934,-0.424363732338
1535039705191706370,0,1535039705111026390,world,checkerboard,2.42787051201,0.800602316856,1.53557193279,-0.374862551689,-0.639264404774,-0.600068390369,-0.301226168871
1535039705191722963,0,1535039705111030620,world,kinect2_mocap,0.104190938175,-1.32810592651,1.35404241085,-0.031386911869,-0.00209179637022,0.0574248358607,-0.997854173183
1535039705191728542,0,1535039705111036676,world,hand,-0.495060950518,-0.160101234913,1.52520668507,-0.152331277728,-0.0804103389382,-0.888814270496,-0.424663096666
1535039705191733029,0,1535039705111040064,world,checkerboard,2.42784571648,0.800591826439,1.53557431698,-0.374829530716,-0.63935571909,-0.600041508675,-0.301126599312
1535039705191737637,0,1535039705111043431,world,kinect2_mocap,0.104190737009,-1.32810640335,1.35404241085,-0.0313870981336,-0.00209311698563,0.0574244074523,-0.997854173183
1535039705191867968,0,1535039705191571761,kinect2_link,kinect2_rgb_optical_frame,0.0,0.0,0.0,0.0,0.0,0.0,1.0
1535039705191877189,0,1535039705191571761,kinect2_rgb_optical_frame,kinect2_ir_optical_frame,-0.0519399138017,0.00333959742795,0.00875866802314,-0.00453113942441,-0.00375492295549,0.00308026364555,0.999977940409
1535039705200017904,0,1535039705120234085,world,hand,-0.495197445154,-0.160021111369,1.53613972664,-0.150037154555,-0.0895176380873,-0.886919140816,-0.427609413862
1535039705201868780,0,1535039705201657231,kinect2_link,kinect2_rgb_optical_frame,0.0,0.0,0.0,0.0,0.0,0.0,1.0
1535039705201877052,0,1535039705201657231,kinect2_rgb_optical_frame,kinect2_ir_optical_frame,-0.0519399138017,0.00333959742795,0.00875866802314,-0.00453113942441,-0.00375492295549,0.00308026364555,0.999977940409
1535039705202629564,0,1535039705120247035,world,checkerboard,2.42784643173,0.800565838814,1.53557789326,-0.374824732542,-0.639284849167,-0.600066781044,-0.301232755184
1535039705202638894,0,1535039705120252973,world,kinect2_mocap,0.104190550745,-1.32810664177,1.35404241085,-0.0313891619444,-0.00209421035834,0.0574238821864,-0.997854173183
1535039705209069853,0,1535039705130487925,world,hand,-0.495361715555,-0.159944728017,1.5470430851,-0.149451643229,-0.0978559926152,-0.884713232517,-0.430547267199
1535039705211594559,0,1535039705130498280,world,checkerboard,2.42785644531,0.800572693348,1.53556978703,-0.374863088131,-0.639309167862,-0.600043177605,-0.301180392504
1535039705211616666,0,1535039705130520897,world,kinect2_mocap,0.104190528393,-1.32810688019,1.35404241085,-0.0313897766173,-0.00209500058554,0.0574231743813,-0.997854173183
1535039705211931814,0,1535039705211749199,kinect2_link,kinect2_rgb_optical_frame,0.0,0.0,0.0,0.0,0.0,0.0,1.0
1535039705211942760,0,1535039705211749199,kinect2_rgb_optical_frame,kinect2_ir_optical_frame,-0.0519399138017,0.00333959742795,0.00875866802314,-0.00453113942441,-0.00375492295549,0.00308026364555,0.999977940409
1535039705219310464,0,1535039705140715565,world,hand,-0.495149493217,-0.15983684361,1.55776977539,-0.146260812879,-0.105488955975,-0.88334441185,-0.432645827532
1535039705221600473,0,1535039705140725396,world,checkerboard,2.42784118652,0.800583958626,1.53557550907,-0.374854654074,-0.63936907053,-0.600024998188,-0.301099985838
1535039705221615131,0,1535039705140729730,world,kinect2_mocap,0.104190446436,-1.32810711861,1.35404264927,-0.0313910283148,-0.00209618080407,0.0574229322374,-0.997854173183
1535039705224776597,0,1535039705221854018,kinect2_link,kinect2_rgb_optical_frame,0.0,0.0,0.0,0.0,0.0,0.0,1.0
1535039705224787504,0,1535039705221854018,kinect2_rgb_optical_frame,kinect2_ir_optical_frame,-0.0519399138017,0.00333959742795,0.00875866802314,-0.00453113942441,-0.00375492295549,0.00308026364555,0.999977940409
1535039705232049202,0,1535039705150970745,world,hand,-0.494591623545,-0.159773498774,1.56839585304,-0.143701627851,-0.111772455275,-0.882482469082,-0.433683723211
1535039705232100239,0,1535039705231989892,kinect2_link,kinect2_rgb_optical_frame,0.0,0.0,0.0,0.0,0.0,0.0,1.0
1535039705232105114,0,1535039705231989892,kinect2_rgb_optical_frame,kinect2_ir_optical_frame,-0.0519399138017,0.00333959742795,0.00875866802314,-0.00453113942441,-0.00375492295549,0.00308026364555,0.999977940409
1535039705234414728,0,1535039705151007681,world,checkerboard,2.42784881592,0.800578892231,1.53557050228,-0.374816328287,-0.639313101768,-0.600069344044,-0.301178395748
1535039705234424989,0,1535039705151017499,world,kinect2_mocap,0.104190453887,-1.32810735703,1.35404264927,-0.0313924662769,-0.0020972432103,0.0574225634336,-0.997854053974
1535039705238969590,0,1535039705160234057,world,hand,-0.493883579969,-0.159842252731,1.57889020443,-0.1437356323,-0.117756865919,-0.880702495575,-0.435702383518
1535039705240880742,0,1535039705160249539,world,checkerboard,2.42785620689,0.800579965115,1.53557860851,-0.374851435423,-0.639365911484,-0.599983096123,-0.301194489002
1535039705240889687,0,1535039705160256955,world,kinect2_mocap,0.104190580547,-1.32810759544,1.35404288769,-0.0313935428858,-0.00209830515087,0.0574219934642,-0.997854053974
1535039705240893918,0,1535039705160268260,world,hand,-0.493001818657,-0.160066828132,1.58928024769,-0.145586326718,-0.123864740133,-0.877916812897,-0.439003884792
1535039705240904937,0,1535039705160273763,world,checkerboard,2.42783784866,0.800569117069,1.53557705879,-0.374871701002,-0.639288723469,-0.600050806999,-0.301197916269
1535039705240911565,0,1535039705160278775,world,kinect2_mocap,0.104190662503,-1.32810759544,1.35404288769,-0.0313936509192,-0.00209904252551,0.057421579957,-0.997854173183
1535039705242214692,0,1535039705242073339,kinect2_link,kinect2_rgb_optical_frame,0.0,0.0,0.0,0.0,0.0,0.0,1.0
1535039705242228959,0,1535039705242073339,kinect2_rgb_optical_frame,kinect2_ir_optical_frame,-0.0519399138017,0.00333959742795,0.00875866802314,-0.00453113942441,-0.00375492295549,0.00308026364555,0.999977940409
1535039705249466344,0,1535039705170832666,world,hand,-0.491506755352,-0.160335212946,1.59941339493,-0.147525593638,-0.128776296973,-0.876322090626,-0.440127968788
1535039705251846466,0,1535039705170860496,world,checkerboard,2.42784309387,0.800561666489,1.53558075428,-0.374823480844,-0.639324188232,-0.600060999393,-0.30116251111
1535039705251867421,0,1535039705170865754,world,kinect2_mocap,0.104190714657,-1.32810783386,1.35404312611,-0.0313935875893,-0.00209996313788,0.057421348989,-0.997854173183
1535039705256788077,0,1535039705252171873,kinect2_link,kinect2_rgb_optical_frame,0.0,0.0,0.0,0.0,0.0,0.0,1.0
1535039705256862688,0,1535039705252171873,kinect2_rgb_optical_frame,kinect2_ir_optical_frame,-0.0519399138017,0.00333959742795,0.00875866802314,-0.00453113942441,-0.00375492295549,0.00308026364555,0.999977940409
1535039705258701776,0,1535039705180122569,world,hand,-0.490057647228,-0.160713121295,1.60952806473,-0.150586202741,-0.134716287255,-0.873204886913,-0.44349578023
1535039705261273994,0,1535039705180131576,world,checkerboard,2.42784953117,0.800555109978,1.53557908535,-0.374899864197,-0.63932454586,-0.599970161915,-0.301247537136
1535039705261294511,0,1535039705180135831,world,kinect2_mocap,0.104190841317,-1.32810783386,1.35404336452,-0.0313942357898,-0.00210073008202,0.0574206486344,-0.997854173183
1535039705261924936,0,1535039705303360679,/kinect2_mocap,/kinect2_link,0.0801417617159,0.0689299826583,-0.011685626472,-0.704332345391,-0.0271284587477,0.0479526774544,0.707729139351
1535039705265683347,0,1535039705265461897,kinect2_link,kinect2_rgb_optical_frame,0.0,0.0,0.0,0.0,0.0,0.0,1.0
1535039705265735454,0,1535039705265461897,kinect2_rgb_optical_frame,kinect2_ir_optical_frame,-0.0519399138017,0.00333959742795,0.00875866802314,-0.00453113942441,-0.00375492295549,0.00308026364555,0.999977940409
1535039705269100224,0,1535039705190475528,world,hand,-0.488230615854,-0.161015599966,1.61947715282,-0.152304813266,-0.14068312943,-0.871079862118,-0.445231944323
1535039705271091208,0,1535039705190525631,world,checkerboard,2.42784118652,0.80055642128,1.53557932377,-0.37487334013,-0.639362454414,-0.599990844727,-0.301159054041
1535039705271101305,0,1535039705190541111,world,kinect2_mocap,0.104190915823,-1.32810807228,1.35404360294,-0.0313933752477,-0.00210086163133,0.0574203766882,-0.997854173183
1535039705275674773,0,1535039705275550585,kinect2_link,kinect2_rgb_optical_frame,0.0,0.0,0.0,0.0,0.0,0.0,1.0
1535039705275688311,0,1535039705275550585,kinect2_rgb_optical_frame,kinect2_ir_optical_frame,-0.0519399138017,0.00333959742795,0.00875866802314,-0.00453113942441,-0.00375492295549,0.00308026364555,0.999977940409
1535039705279382982,0,1535039705200807933,world,hand,-0.486146479845,-0.161400154233,1.62941408157,-0.154686406255,-0.145845711231,-0.868863046169,-0.447077542543
1535039705281879494,0,1535039705200840357,world,checkerboard,2.42785596848,0.800564706326,1.53556406498,-0.374888092279,-0.639322400093,-0.599971711636,-0.30126363039
1535039705281901233,0,1535039705200848129,world,kinect2_mocap,0.104190900922,-1.3281083107,1.35404384136,-0.0313933193684,-0.00210123416036,0.0574202388525,-0.997854173183
1535039705288878821,0,1535039705210267239,world,hand,-0.483963280916,-0.161793485284,1.63913738728,-0.154128238559,-0.150228232145,-0.868547916412,-0.446430951357
1535039705289482321,0,1535039705285663716,kinect2_link,kinect2_rgb_optical_frame,0.0,0.0,0.0,0.0,0.0,0.0,1.0
1535039705289496689,0,1535039705285663716,kinect2_rgb_optical_frame,kinect2_ir_optical_frame,-0.0519399138017,0.00333959742795,0.00875866802314,-0.00453113942441,-0.00375492295549,0.00308026364555,0.999977940409
1535039705291389631,0,1535039705210319578,world,checkerboard,2.42785620689,0.80055552721,1.53555881977,-0.37489053607,-0.639386534691,-0.599969208241,-0.301129549742
1535039705291407304,0,1535039705210331421,world,kinect2_mocap,0.104190886021,-1.32810854912,1.35404384136,-0.0313930772245,-0.00210164953023,0.0574201755226,-0.997854173183
1535039705291412798,0,1535039705210345850,world,hand,-0.481625914574,-0.162226170301,1.64891147614,-0.152104154229,-0.155585885048,-0.867508709431,-0.447309702635
1535039705291422665,0,1535039705210350457,world,checkerboard,2.42783594131,0.80055809021,1.53556072712,-0.374900788069,-0.639354348183,-0.599965155125,-0.301193028688
1535039705291431168,0,1535039705210355331,world,kinect2_mocap,0.104190796614,-1.32810854912,1.35404360294,-0.0313938111067,-0.00210212077945,0.0574199818075,-0.997854173183
1535039705299223061,0,1535039705220660975,world,hand,-0.479067265987,-0.162520781159,1.65850937366,-0.15189859271,-0.163554772735,-0.865550637245,-0.448328882456
1535039705299323617,0,1535039705299164921,kinect2_link,kinect2_rgb_optical_frame,0.0,0.0,0.0,0.0,0.0,0.0,1.0
1535039705299337536,0,1535039705299164921,kinect2_rgb_optical_frame,kinect2_ir_optical_frame,-0.0519399138017,0.00333959742795,0.00875866802314,-0.00453113942441,-0.00375492295549,0.00308026364555,0.999977940409
1535039705301201400,0,1535039705220704026,world,checkerboard,2.42782449722,0.800535082817,1.5355591774,-0.374872207642,-0.63938331604,-0.599974155426,-0.301149249077
1535039705301211645,0,1535039705220711692,world,kinect2_mocap,0.104190766811,-1.32810878754,1.35404336452,-0.0313941910863,-0.00210320716724,0.057419963181,-0.997854173183
1535039705308727943,0,1535039705230112852,world,hand,-0.476156383753,-0.162648573518,1.66793274879,-0.152429535985,-0.171109929681,-0.864401459694,-0.4475453794
1535039705309533768,0,1535039705309255993,kinect2_link,kinect2_rgb_optical_frame,0.0,0.0,0.0,0.0,0.0,0.0,1.0
1535039705309559162,0,1535039705309255993,kinect2_rgb_optical_frame,kinect2_ir_optical_frame,-0.0519399138017,0.00333959742795,0.00875866802314,-0.00453113942441,-0.00375492295549,0.00308026364555,0.999977940409
1535039705311001582,0,1535039705230124726,world,checkerboard,2.42785096169,0.800530850887,1.53556263447,-0.374926805496,-0.639277935028,-0.599997460842,-0.301258504391
1535039705311012531,0,1535039705230129505,world,kinect2_mocap,0.104190647602,-1.32810902596,1.35404312611,-0.0313949398696,-0.00210418202914,0.0574199445546,-0.997854173183
1535039705319015721,0,1535039705240481788,world,hand,-0.473037958145,-0.163026124239,1.67734575272,-0.1517380476,-0.176477998495,-0.863904058933,-0.446655243635
1535039705319553605,0,1535039705319366891,kinect2_link,kinect2_rgb_optical_frame,0.0,0.0,0.0,0.0,0.0,0.0,1.0
1535039705319567561,0,1535039705319366891,kinect2_rgb_optical_frame,kinect2_ir_optical_frame,-0.0519399138017,0.00333959742795,0.00875866802314,-0.00453113942441,-0.00375492295549,0.00308026364555,0.999977940409
1535039705321436047,0,1535039705240542629,world,checkerboard,2.42785263062,0.800559282303,1.53556966782,-0.374885380268,-0.639284729958,-0.60002797842,-0.301234841347
1535039705321451397,0,1535039705240549240,world,kinect2_mocap,0.104190558195,-1.32810902596,1.35404312611,-0.0313948728144,-0.00210436200723,0.0574200190604,-0.997854173183
1535039705329755307,0,1535039705329566455,kinect2_link,kinect2_rgb_optical_frame,0.0,0.0,0.0,0.0,0.0,0.0,1.0
1535039705329775613,0,1535039705329566455,kinect2_rgb_optical_frame,kinect2_ir_optical_frame,-0.0519399138017,0.00333959742795,0.00875866802314,-0.00453113942441,-0.00375492295549,0.00308026364555,0.999977940409
1535039705331744882,0,1535039705250837586,world,hand,-0.470113217831,-0.163374885917,1.68688702583,-0.148914054036,-0.182216957211,-0.862601876259,-0.447816699743
1535039705333819219,0,1535039705250892290,world,checkerboard,2.42787241936,0.80055731535,1.53557550907,-0.374975293875,-0.639347314835,-0.599916517735,-0.301212131977
1535039705333832804,0,1535039705250904396,world,kinect2_mocap,0.104190632701,-1.32810902596,1.35404288769,-0.0313955545425,-0.00210501998663,0.0574204474688,-0.997854173183
1535039705338588370,0,1535039705260166456,world,hand,-0.466744065285,-0.163862556219,1.69626891613,-0.14754755795,-0.186788916588,-0.861697852612,-0.448125392199
1535039705339846145,0,1535039705339665788,kinect2_link,kinect2_rgb_optical_frame,0.0,0.0,0.0,0.0,0.0,0.0,1.0
1535039705339858697,0,1535039705339665788,kinect2_rgb_optical_frame,kinect2_ir_optical_frame,-0.0519399138017,0.00333959742795,0.00875866802314,-0.00453113942441,-0.00375492295549,0.00308026364555,0.999977940409
1535039705341225933,0,1535039705260220275,world,checkerboard,2.4278242588,0.800525248051,1.53558075428,-0.374863564968,-0.639348447323,-0.599992096424,-0.301198273897
1535039705341237397,0,1535039705260227306,world,kinect2_mocap,0.104190871119,-1.32810902596,1.35404264927,-0.0313959270716,-0.00210558949038,0.0574207492173,-0.997854053974
1535039705341242490,0,1535039705260238939,world,hand,-0.462755829096,-0.164267361164,1.70532608032,-0.147740900517,-0.19247995317,-0.85991859436,-0.449070215225
1535039705341246883,0,1535039705260257225,world,checkerboard,2.42783880234,0.800530195236,1.5355758667,-0.374936163425,-0.639301121235,-0.599941790104,-0.301308453083
1535039705341252776,0,1535039705260265147,world,kinect2_mocap,0.104191094637,-1.32810902596,1.35404264927,-0.0313976444304,-0.00210617622361,0.0574203059077,-0.997854053974
1535039705349194207,0,1535039705270535746,world,hand,-0.458837032318,-0.164599776268,1.71423304081,-0.147531881928,-0.19840271771,-0.858772218227,-0.448755145073
1535039705351355045,0,1535039705349746617,kinect2_link,kinect2_rgb_optical_frame,0.0,0.0,0.0,0.0,0.0,0.0,1.0
1535039705351374258,0,1535039705349746617,kinect2_rgb_optical_frame,kinect2_ir_optical_frame,-0.0519399138017,0.00333959742795,0.00875866802314,-0.00453113942441,-0.00375492295549,0.00308026364555,0.999977940409
1535039705351651501,0,1535039705270546245,world,checkerboard,2.42782831192,0.800528407097,1.53557085991,-0.374964803457,-0.639351129532,-0.599920451641,-0.301209270954
1535039705351661531,0,1535039705270599184,world,kinect2_mocap,0.104191154242,-1.32810878754,1.35404264927,-0.0313988365233,-0.00210667354986,0.0574204474688,-0.997854053974
1535039705359575620,0,1535039705280810542,world,hand,-0.454745084047,-0.164739400148,1.72276926041,-0.147457063198,-0.205289155245,-0.858139693737,-0.446888238192
1535039705361574196,0,1535039705280847534,world,checkerboard,2.42783784866,0.800535678864,1.53555333614,-0.374875932932,-0.639298677444,-0.600014269352,-0.301244407892
1535039705361595326,0,1535039705280877760,world,kinect2_mocap,0.104191273451,-1.32810854912,1.35404264927,-0.0313990749419,-0.00210712873377,0.0574206933379,-0.997853934765
1535039705361726709,0,1535039705359840337,kinect2_link,kinect2_rgb_optical_frame,0.0,0.0,0.0,0.0,0.0,0.0,1.0
1535039705361732158,0,1535039705359840337,kinect2_rgb_optical_frame,kinect2_ir_optical_frame,-0.0519399138017,0.00333959742795,0.00875866802314,-0.00453113942441,-0.00375492295549,0.00308026364555,0.999977940409
1535039705368668521,0,1535039705290026329,world,hand,-0.45016464591,-0.165109559894,1.73142278194,-0.150168046355,-0.211701259017,-0.856579184532,-0.445986658335
1535039705370054807,0,1535039705369935941,kinect2_link,kinect2_rgb_optical_frame,0.0,0.0,0.0,0.0,0.0,0.0,1.0
1535039705370064072,0,1535039705369935941,kinect2_rgb_optical_frame,kinect2_ir_optical_frame,-0.0519399138017,0.00333959742795,0.00875866802314,-0.00453113942441,-0.00375492295549,0.00308026364555,0.999977940409
1535039705371314740,0,1535039705290067900,world,checkerboard,2.42784833908,0.800559878349,1.53555119038,-0.374947220087,-0.639250040054,-0.599984884262,-0.301317483187
1535039705371322952,0,1535039705290078079,world,kinect2_mocap,0.10419139266,-1.3281083107,1.35404241085,-0.0313992872834,-0.00210703746416,0.0574209168553,-0.997853934765
1535039705378949852,0,1535039705300307011,world,hand,-0.446154594421,-0.1654535532,1.74009025097,-0.145597144961,-0.217377275229,-0.856391012669,-0.445132821798
1535039705380125974,0,1535039705380011460,kinect2_link,kinect2_rgb_optical_frame,0.0,0.0,0.0,0.0,0.0,0.0,1.0
1535039705380144118,0,1535039705380011460,kinect2_rgb_optical_frame,kinect2_ir_optical_frame,-0.0519399138017,0.00333959742795,0.00875866802314,-0.00453113942441,-0.00375492295549,0.00308026364555,0.999977940409
1535039705381316323,0,1535039705300365762,world,checkerboard,2.42786693573,0.800597667694,1.53553020954,-0.374914646149,-0.639195799828,-0.600029408932,-0.301384478807
1535039705381326279,0,1535039705300372582,world,kinect2_mocap,0.104191496968,-1.32810807228,1.35404193401,-0.031398806721,-0.0021067217458,0.0574213787913,-0.997853934765
1535039705382091939,0,1535039705423449209,/kinect2_mocap,/kinect2_link,0.0801417617159,0.0689299826583,-0.011685626472,-0.704332345391,-0.0271284587477,0.0479526774544,0.707729139351
1535039705389027978,0,1535039705310579713,world,hand,-0.44178673625,-0.16584867239,1.74889039993,-0.149602085352,-0.220651552081,-0.856509149075,-0.441955119371
1535039705390222909,0,1535039705390088017,kinect2_link,kinect2_rgb_optical_frame,0.0,0.0,0.0,0.0,0.0,0.0,1.0
1535039705390234104,0,1535039705390088017,kinect2_rgb_optical_frame,kinect2_ir_optical_frame,-0.0519399138017,0.00333959742795,0.00875866802314,-0.00453113942441,-0.00375492295549,0.00308026364555,0.999977940409
1535039705391453429,0,1535039705310612061,world,checkerboard,2.42788910866,0.800610542297,1.53550946712,-0.374961614609,-0.639294803143,-0.599929988384,-0.301313698292
1535039705391465472,0,1535039705310620303,world,kinect2_mocap,0.104191437364,-1.32810807228,1.35404145718,-0.0313989296556,-0.0021063380409,0.0574215203524,-0.997853934765
1535039705391470640,0,1535039705310630469,world,hand,-0.435526221991,-0.166059166193,1.75659561157,-0.163927391171,-0.22093693912,-0.851492106915,-0.446403414011
1535039705391481914,0,1535039705310636382,world,checkerboard,2.42788743973,0.800626337528,1.53551447392,-0.374937981367,-0.639336824417,-0.599921703339,-0.301270633936
1535039705391488120,0,1535039705310642213,world,kinect2_mocap,0.104191452265,-1.32810783386,1.35404098034,-0.0313988886774,-0.00210637622513,0.0574216768146,-0.997853934765
1535039705399526465,0,1535039705321043409,world,hand,-0.431043177843,-0.166810378432,1.76464033127,-0.15608599782,-0.230066969991,-0.855143666267,-0.437533706427
1535039705400294102,0,1535039705400165176,kinect2_link,kinect2_rgb_optical_frame,0.0,0.0,0.0,0.0,0.0,0.0,1.0
1535039705400310837,0,1535039705400165176,kinect2_rgb_optical_frame,kinect2_ir_optical_frame,-0.0519399138017,0.00333959742795,0.00875866802314,-0.00453113942441,-0.00375492295549,0.00308026364555,0.999977940409
1535039705401843969,0,1535039705321057430,world,checkerboard,2.42786335945,0.800605475903,1.5355322361,-0.37483471632,-0.639377951622,-0.600014030933,-0.301127880812
1535039705401853018,0,1535039705321084205,world,kinect2_mocap,0.10419139266,-1.32810759544,1.3540405035,-0.0314001441002,-0.00210724072531,0.0574216246605,-0.997853934765
1535039705408935477,0,1535039705330367316,world,hand,-0.425956040621,-0.167427286506,1.77252793312,-0.154480069876,-0.23568315804,-0.855607688427,-0.434194684029
1535039705410385410,0,1535039705410248554,kinect2_link,kinect2_rgb_optical_frame,0.0,0.0,0.0,0.0,0.0,0.0,1.0
1535039705410392702,0,1535039705410248554,kinect2_rgb_optical_frame,kinect2_ir_optical_frame,-0.0519399138017,0.00333959742795,0.00875866802314,-0.00453113942441,-0.00375492295549,0.00308026364555,0.999977940409
1535039705411440700,0,1535039705330422269,world,checkerboard,2.42784380913,0.800560355186,1.53554272652,-0.374916225672,-0.639380156994,-0.599958658218,-0.30113196373
1535039705411446397,0,1535039705330430807,world,kinect2_mocap,0.104191482067,-1.32810711861,1.35404026508,-0.0314002335072,-0.00210749031976,0.0574224181473,-0.997853815556
1535039705419437503,0,1535039705340720012,world,hand,-0.420794844627,-0.167952597141,1.78032374382,-0.152939900756,-0.24132488668,-0.85552662611,-0.431793838739
1535039705421293871,0,1535039705420325268,kinect2_link,kinect2_rgb_optical_frame,0.0,0.0,0.0,0.0,0.0,0.0,1.0
1535039705421309480,0,1535039705420325268,kinect2_rgb_optical_frame,kinect2_ir_optical_frame,-0.0519399138017,0.00333959742795,0.00875866802314,-0.00453113942441,-0.00375492295549,0.00308026364555,0.999977940409
1535039705421547401,0,1535039705340758342,world,checkerboard,2.42783904076,0.800536334515,1.53556752205,-0.374837487936,-0.639317929745,-0.600050866604,-0.30117842555
1535039705421557258,0,1535039705340765536,world,kinect2_mocap,0.104191683233,-1.32810664177,1.35404002666,-0.0314010307193,-0.00210767798126,0.0574222281575,-0.997853815556
1535039705428522058,0,1535039705350019286,world,hand,-0.415288358927,-0.168503135443,1.78793156147,-0.151936724782,-0.245640411973,-0.855576813221,-0.429609626532
1535039705431384344,0,1535039705431223520,kinect2_link,kinect2_rgb_optical_frame,0.0,0.0,0.0,0.0,0.0,0.0,1.0
1535039705431394145,0,1535039705431223520,kinect2_rgb_optical_frame,kinect2_ir_optical_frame,-0.0519399138017,0.00333959742795,0.00875866802314,-0.00453113942441,-0.00375492295549,0.00308026364555,0.999977940409
1535039705431581374,0,1535039705350049499,world,checkerboard,2.42782568932,0.800515770912,1.53557729721,-0.374855607748,-0.639289438725,-0.600048601627,-0.301221013069
1535039705431588459,0,1535039705350059054,world,kinect2_mocap,0.104191854596,-1.32810640335,1.35404002666,-0.0314003862441,-0.00210780533962,0.0574226677418,-0.997853815556
1535039705438832272,0,1535039705360346779,world,hand,-0.410708099604,-0.168926253915,1.79589772224,-0.146512269974,-0.2514359653,-0.855478286743,-0.428335249424
1535039705441020389,0,1535039705360411045,world,checkerboard,2.4278318882,0.800516664982,1.53558540344,-0.374882161617,-0.639273881912,-0.600064098835,-0.301189899445
1535039705441030755,0,1535039705360419066,world,kinect2_mocap,0.104191921651,-1.32810616493,1.35404002666,-0.0314012877643,-0.00210841256194,0.0574229285121,-0.997853815556
1535039705441035555,0,1535039705360499237,world,hand,-0.404822856188,-0.169569775462,1.80317246914,-0.144870921969,-0.256917744875,-0.856389164925,-0.423796504736
1535039705441042543,0,1535039705360504647,world,checkerboard,2.42782664299,0.800508677959,1.53559243679,-0.374959468842,-0.639249742031,-0.600005030632,-0.301262676716
1535039705441046390,0,1535039705360509814,world,kinect2_mocap,0.104192018509,-1.32810616493,1.35403978825,-0.0314003750682,-0.00210855179466,0.057423684746,-0.997853815556
1535039705441466060,0,1535039705441303930,kinect2_link,kinect2_rgb_optical_frame,0.0,0.0,0.0,0.0,0.0,0.0,1.0
1535039705441470447,0,1535039705441303930,kinect2_rgb_optical_frame,kinect2_ir_optical_frame,-0.0519399138017,0.00333959742795,0.00875866802314,-0.00453113942441,-0.00375492295549,0.00308026364555,0.999977940409
1535039705449355012,0,1535039705370790752,world,hand,-0.398168951273,-0.170569002628,1.80978679657,-0.151507869363,-0.260339915752,-0.854531764984,-0.423136025667
1535039705451746445,0,1535039705370821300,world,checkerboard,2.42785096169,0.800526857376,1.5355848074,-0.374918341637,-0.639290630817,-0.599999427795,-0.301238149405
1535039705451767230,0,1535039705370829341,world,kinect2_mocap,0.104192100465,-1.32810616493,1.35403954983,-0.0313997119665,-0.00210828101262,0.0574237704277,-0.997853815556
1535039705455501938,0,1535039705451410728,kinect2_link,kinect2_rgb_optical_frame,0.0,0.0,0.0,0.0,0.0,0.0,1.0
1535039705455511913,0,1535039705451410728,kinect2_rgb_optical_frame,kinect2_ir_optical_frame,-0.0519399138017,0.00333959742795,0.00875866802314,-0.00453113942441,-0.00375492295549,0.00308026364555,0.999977940409
1535039705458680937,0,1535039705380156069,world,hand,-0.391166746616,-0.170616000891,1.81666374207,-0.148649409413,-0.263054907322,-0.853576183319,-0.42439737916
1535039705461142372,0,1535039705380196181,world,checkerboard,2.42783164978,0.800421357155,1.53560733795,-0.375045329332,-0.639437317848,-0.599635243416,-0.301494032145
1535039705461153595,0,1535039705380205705,world,kinect2_mocap,0.104191973805,-1.32810616493,1.35403931141,-0.0313988476992,-0.00210810056888,0.0574237219989,-0.997853815556
1535039705461636756,0,1535039705461530644,kinect2_link,kinect2_rgb_optical_frame,0.0,0.0,0.0,0.0,0.0,0.0,1.0
