%time,field.transforms0.header.seq,field.transforms0.header.stamp,field.transforms0.header.frame_id,field.transforms0.child_frame_id,field.transforms0.transform.translation.x,field.transforms0.transform.translation.y,field.transforms0.transform.translation.z,field.transforms0.transform.rotation.x,field.transforms0.transform.rotation.y,field.transforms0.transform.rotation.z,field.transforms0.transform.rotation.w
1535040126653915263,0,1535040126570550633,world,hand,0.132832527161,0.137954488397,1.02729189396,0.105513833463,0.0767606124282,-0.991254389286,-0.0197334252298
1535040126656146082,0,1535040126570566252,world,checkerboard,2.42771720886,0.800505280495,1.53547251225,-0.374948501587,-0.639235675335,-0.600011348724,-0.301293671131
1535040126656158116,0,1535040126570572554,world,kinect2_mocap,0.10430816561,-1.32803106308,1.3541020155,-0.0305895525962,-0.00115065474529,0.0578056648374,-0.997858464718
1535040126658051736,0,1535040126650992586,kinect2_link,kinect2_rgb_optical_frame,0.0,0.0,0.0,0.0,0.0,0.0,1.0
1535040126658067022,0,1535040126650992586,kinect2_rgb_optical_frame,kinect2_ir_optical_frame,-0.0519399138017,0.00333959742795,0.00875866802314,-0.00453113942441,-0.00375492295549,0.00308026364555,0.999977940409
1535040126663604938,0,1535040126663470091,kinect2_link,kinect2_rgb_optical_frame,0.0,0.0,0.0,0.0,0.0,0.0,1.0
1535040126663616046,0,1535040126663470091,kinect2_rgb_optical_frame,kinect2_ir_optical_frame,-0.0519399138017,0.00333959742795,0.00875866802314,-0.00453113942441,-0.00375492295549,0.00308026364555,0.999977940409
1535040126665043406,0,1535040126580894268,world,hand,0.132824197412,0.137967318296,1.02732503414,0.105502277613,0.0767323598266,-0.991259753704,-0.0196363329887
1535040126667284636,0,1535040126580907810,world,checkerboard,2.42772197723,0.800509393215,1.53548502922,-0.374960035086,-0.639154911041,-0.600047230721,-0.301378965378
1535040126667294901,0,1535040126580913644,world,kinect2_mocap,0.104308754206,-1.3280313015,1.3541008234,-0.0305739939213,-0.00114933087025,0.0578095242381,-0.997858703136
1535040126667371339,0,1535040126580922491,world,hand,0.132810249925,0.137968018651,1.02735590935,0.105433747172,0.0767812952399,-0.99126213789,-0.0196911618114
1535040126667377784,0,1535040126580926906,world,checkerboard,2.42771553993,0.800506949425,1.53550541401,-0.374854803085,-0.639122724533,-0.600156188011,-0.301361322403
1535040126667382235,0,1535040126580931380,world,kinect2_mocap,0.104308500886,-1.32803201675,1.3541008234,-0.0305808410048,-0.00114903389476,0.0578086078167,-0.997858583927
1535040126673351462,0,1535040126590141311,world,hand,0.132817924023,0.137982949615,1.02737724781,0.105495840311,0.0767949447036,-0.991251647472,-0.0198343489319
1535040126673691572,0,1535040126673553326,kinect2_link,kinect2_rgb_optical_frame,0.0,0.0,0.0,0.0,0.0,0.0,1.0
1535040126673700934,0,1535040126673553326,kinect2_rgb_optical_frame,kinect2_ir_optical_frame,-0.0519399138017,0.00333959742795,0.00875866802314,-0.00453113942441,-0.00375492295549,0.00308026364555,0.999977940409
1535040126675772983,0,1535040126590193614,world,checkerboard,2.42771959305,0.800506353378,1.53549468517,-0.374916344881,-0.639166533947,-0.600090265274,-0.30132329464
1535040126675806447,0,1535040126590201828,world,kinect2_mocap,0.104308158159,-1.32803273201,1.3541008234,-0.0305886566639,-0.00114869419485,0.0578075274825,-0.997858345509
1535040126683692937,0,1535040126600457770,world,hand,0.132810130715,0.137988701463,1.0274066925,0.105555459857,0.0767703875899,-0.991246342659,-0.0198770575225
1535040126685857756,0,1535040126600490401,world,checkerboard,2.42773914337,0.800500631332,1.53549790382,-0.37487873435,-0.639094412327,-0.600157737732,-0.301388502121
1535040126685878192,0,1535040126600497469,world,kinect2_mocap,0.104304485023,-1.32803475857,1.35410273075,-0.030611846596,-0.00116562726907,0.0577969774604,-0.997858226299
1535040126689888591,0,1535040126684285627,kinect2_link,kinect2_rgb_optical_frame,0.0,0.0,0.0,0.0,0.0,0.0,1.0
1535040126689904635,0,1535040126684285627,kinect2_rgb_optical_frame,kinect2_ir_optical_frame,-0.0519399138017,0.00333959742795,0.00875866802314,-0.00453113942441,-0.00375492295549,0.00308026364555,0.999977940409
1535040126693880181,0,1535040126610711639,world,hand,0.132804170251,0.138003379107,1.02743542194,0.105459295213,0.0766749456525,-0.991263210773,-0.0199144240469
1535040126694469040,0,1535040126694366842,kinect2_link,kinect2_rgb_optical_frame,0.0,0.0,0.0,0.0,0.0,0.0,1.0
1535040126694477081,0,1535040126694366842,kinect2_rgb_optical_frame,kinect2_ir_optical_frame,-0.0519399138017,0.00333959742795,0.00875866802314,-0.00453113942441,-0.00375492295549,0.00308026364555,0.999977940409
1535040126695752590,0,1535040126610743518,world,checkerboard,2.4277408123,0.800500273705,1.53549194336,-0.374892175198,-0.639189660549,-0.60008084774,-0.301322817802
1535040126695762836,0,1535040126610751247,world,kinect2_mocap,0.104304477572,-1.3280351162,1.35410296917,-0.0306175015867,-0.0011650105007,0.0577961169183,-0.99785810709
1535040126702793843,0,1535040126739394674,/kinect2_mocap,/kinect2_link,0.0801417617159,0.0689299826583,-0.011685626472,-0.704332345391,-0.0271284587477,0.0479526774544,0.707729139351
1535040126704361281,0,1535040126621014042,world,hand,0.132813706994,0.138021171093,1.02746522427,0.105557978153,0.0765382945538,-0.991264104843,-0.0198760852218
1535040126704533656,0,1535040126704445294,kinect2_link,kinect2_rgb_optical_frame,0.0,0.0,0.0,0.0,0.0,0.0,1.0
1535040126704542862,0,1535040126704445294,kinect2_rgb_optical_frame,kinect2_ir_optical_frame,-0.0519399138017,0.00333959742795,0.00875866802314,-0.00453113942441,-0.00375492295549,0.00308026364555,0.999977940409
1535040126706522612,0,1535040126621029390,world,checkerboard,2.42777466774,0.800487339497,1.53547549248,-0.374949663877,-0.639170825481,-0.600054383278,-0.301343888044
1535040126706530969,0,1535040126621039610,world,kinect2_mocap,0.104304552078,-1.32803547382,1.35410320759,-0.0306236166507,-0.00116369186435,0.0577951297164,-0.997857987881
1535040126713688392,0,1535040126630286765,world,hand,0.132814526558,0.138021916151,1.02749884129,0.105658248067,0.0764891430736,-0.991256475449,-0.0199081897736
1535040126715269637,0,1535040126714556282,kinect2_link,kinect2_rgb_optical_frame,0.0,0.0,0.0,0.0,0.0,0.0,1.0
1535040126715281408,0,1535040126714556282,kinect2_rgb_optical_frame,kinect2_ir_optical_frame,-0.0519399138017,0.00333959742795,0.00875866802314,-0.00453113942441,-0.00375492295549,0.00308026364555,0.999977940409
1535040126715853573,0,1535040126630324039,world,checkerboard,2.42777109146,0.800494432449,1.5354796648,-0.37492159009,-0.639165580273,-0.600065350533,-0.301368296146
1535040126715862393,0,1535040126630332722,world,kinect2_mocap,0.104304865003,-1.32803583145,1.35410344601,-0.0306294057518,-0.00116280827206,0.0577945038676,-0.997857868671
1535040126715878905,0,1535040126630343806,world,hand,0.132815882564,0.138028785586,1.02752673626,0.105755619705,0.0763910487294,-0.991254925728,-0.019846605137
1535040126715883646,0,1535040126630349258,world,checkerboard,2.42777299881,0.800481200218,1.53549361229,-0.374868035316,-0.639172613621,-0.60012948513,-0.301292270422
1535040126715893557,0,1535040126630354274,world,kinect2_mocap,0.104305148125,-1.32803618908,1.35410368443,-0.03063544631,-0.0011620298028,0.057793635875,-0.997857749462
1535040126724196993,0,1535040126640838111,world,hand,0.132799327374,0.138025283813,1.02755260468,0.105976529419,0.0765565037727,-0.991220057011,-0.0197751615196
1535040126724897102,0,1535040126724690065,kinect2_link,kinect2_rgb_optical_frame,0.0,0.0,0.0,0.0,0.0,0.0,1.0
1535040126724926672,0,1535040126724690065,kinect2_rgb_optical_frame,kinect2_ir_optical_frame,-0.0519399138017,0.00333959742795,0.00875866802314,-0.00453113942441,-0.00375492295549,0.00308026364555,0.999977940409
1535040126726646370,0,1535040126640869574,world,checkerboard,2.42780017853,0.800502538681,1.53550076485,-0.374892473221,-0.639131963253,-0.600126743317,-0.301353394985
1535040126726664669,0,1535040126640877486,world,kinect2_mocap,0.104306444526,-1.32803630829,1.35410284996,-0.0306158233434,-0.00116010126658,0.0577987097204,-0.997857987881
1535040126733386464,0,1535040126650084511,world,hand,0.132785901427,0.13802729547,1.0275683403,0.106172651052,0.076701104641,-0.991187870502,-0.0197760481387
1535040126734980550,0,1535040126734772682,kinect2_link,kinect2_rgb_optical_frame,0.0,0.0,0.0,0.0,0.0,0.0,1.0
1535040126734994526,0,1535040126734772682,kinect2_rgb_optical_frame,kinect2_ir_optical_frame,-0.0519399138017,0.00333959742795,0.00875866802314,-0.00453113942441,-0.00375492295549,0.00308026364555,0.999977940409
1535040126735576812,0,1535040126650093887,world,checkerboard,2.42780804634,0.800504624844,1.53549659252,-0.374884486198,-0.639024078846,-0.600202262402,-0.301441818476
1535040126735603456,0,1535040126650115736,world,kinect2_mocap,0.104307696223,-1.3280364275,1.3541020155,-0.0305972620845,-0.00115790136624,0.057803824544,-0.997858345509
1535040126743649491,0,1535040126660401717,world,hand,0.132770806551,0.138021931052,1.0275785923,0.106174878776,0.0767583847046,-0.991183698177,-0.0197504702955
1535040126745049910,0,1535040126744860849,kinect2_link,kinect2_rgb_optical_frame,0.0,0.0,0.0,0.0,0.0,0.0,1.0
1535040126745079199,0,1535040126744860849,kinect2_rgb_optical_frame,kinect2_ir_optical_frame,-0.0519399138017,0.00333959742795,0.00875866802314,-0.00453113942441,-0.00375492295549,0.00308026364555,0.999977940409
1535040126745598566,0,1535040126660440262,world,checkerboard,2.42780542374,0.800506353378,1.53549051285,-0.37485101819,-0.639107584953,-0.600175738335,-0.301359146833
1535040126745608207,0,1535040126660448748,world,kinect2_mocap,0.104309119284,-1.32803654671,1.35410094261,-0.0305794607848,-0.00115603511222,0.0578086227179,-0.997858583927
1535040126754560888,0,1535040126670779922,world,hand,0.132761374116,0.138013243675,1.02758920193,0.106136478484,0.0767680704594,-0.99118500948,-0.0198528543115
1535040126757055817,0,1535040126670811551,world,checkerboard,2.42780089378,0.800497293472,1.53547227383,-0.374912321568,-0.639052629471,-0.600159108639,-0.301432609558
1535040126757068949,0,1535040126670818621,world,kinect2_mocap,0.104310430586,-1.3280364275,1.35409963131,-0.0305630192161,-0.00115464266855,0.0578130595386,-0.997858822346
1535040126758568395,0,1535040126754956930,kinect2_link,kinect2_rgb_optical_frame,0.0,0.0,0.0,0.0,0.0,0.0,1.0
1535040126758581762,0,1535040126754956930,kinect2_rgb_optical_frame,kinect2_ir_optical_frame,-0.0519399138017,0.00333959742795,0.00875866802314,-0.00453113942441,-0.00375492295549,0.00308026364555,0.999977940409
1535040126763389057,0,1535040126680167848,world,hand,0.13275654614,0.138002917171,1.02761685848,0.106087267399,0.0767250955105,-0.991195082664,-0.0197789501399
1535040126765185975,0,1535040126765062327,kinect2_link,kinect2_rgb_optical_frame,0.0,0.0,0.0,0.0,0.0,0.0,1.0
1535040126765192992,0,1535040126765062327,kinect2_rgb_optical_frame,kinect2_ir_optical_frame,-0.0519399138017,0.00333959742795,0.00875866802314,-0.00453113942441,-0.00375492295549,0.00308026364555,0.999977940409
1535040126765716586,0,1535040126680198309,world,checkerboard,2.42778897285,0.800487577915,1.53546309471,-0.374994009733,-0.639113605022,-0.600049734116,-0.301419228315
1535040126765723327,0,1535040126680205808,world,kinect2_mocap,0.104311659932,-1.32803630829,1.35409832001,-0.0305462293327,-0.00115307804663,0.0578182414174,-0.997859060764
1535040126765737194,0,1535040126680215085,world,hand,0.132748544216,0.137980341911,1.02765345573,0.106194660068,0.0766895115376,-0.9911865592,-0.0197667852044
1535040126765744049,0,1535040126680220197,world,checkerboard,2.42778325081,0.800469815731,1.53548932076,-0.374936908484,-0.639092504978,-0.600107431412,-0.301420509815
1535040126765750859,0,1535040126680225212,world,kinect2_mocap,0.104312926531,-1.32803618908,1.35409700871,-0.0305287148803,-0.00115178304259,0.0578230172396,-0.997859299183
1535040126773869346,0,1535040126690535122,world,hand,0.132734671235,0.137976378202,1.02770411968,0.106288321316,0.0767449364066,-0.991168320179,-0.0199622623622
1535040126775304442,0,1535040126775140192,kinect2_link,kinect2_rgb_optical_frame,0.0,0.0,0.0,0.0,0.0,0.0,1.0
1535040126775316300,0,1535040126775140192,kinect2_rgb_optical_frame,kinect2_ir_optical_frame,-0.0519399138017,0.00333959742795,0.00875866802314,-0.00453113942441,-0.00375492295549,0.00308026364555,0.999977940409
1535040126776247173,0,1535040126690551599,world,checkerboard,2.42776918411,0.800487697124,1.53550601006,-0.374966621399,-0.639101147652,-0.600080668926,-0.301418185234
1535040126776253410,0,1535040126690558130,world,kinect2_mocap,0.104314319789,-1.32803606987,1.3540956974,-0.030513310805,-0.00115058326628,0.0578270405531,-0.997859537601
1535040126784302704,0,1535040126700874789,world,hand,0.132708162069,0.137950450182,1.0277633667,0.106410205364,0.0767344683409,-0.991156518459,-0.0199351944029
1535040126786409780,0,1535040126700907602,world,checkerboard,2.42777633667,0.800495684147,1.53551280499,-0.375029891729,-0.639114260674,-0.600026726723,-0.301419258118
1535040126786428005,0,1535040126700915420,world,kinect2_mocap,0.104315780103,-1.32803595066,1.35409462452,-0.0304972250015,-0.00114895089064,0.0578311085701,-0.99785977602
1535040126787298369,0,1535040126785222289,kinect2_link,kinect2_rgb_optical_frame,0.0,0.0,0.0,0.0,0.0,0.0,1.0
1535040126787310670,0,1535040126785222289,kinect2_rgb_optical_frame,kinect2_ir_optical_frame,-0.0519399138017,0.00333959742795,0.00875866802314,-0.00453113942441,-0.00375492295549,0.00308026364555,0.999977940409
1535040126793666771,0,1535040126710225736,world,hand,0.132655873895,0.137912809849,1.02781975269,0.106699302793,0.0768606737256,-0.991115689278,-0.0199364610016
1535040126795493529,0,1535040126795306856,kinect2_link,kinect2_rgb_optical_frame,0.0,0.0,0.0,0.0,0.0,0.0,1.0
1535040126795511367,0,1535040126795306856,kinect2_rgb_optical_frame,kinect2_ir_optical_frame,-0.0519399138017,0.00333959742795,0.00875866802314,-0.00453113942441,-0.00375492295549,0.00308026364555,0.999977940409
1535040126796015777,0,1535040126710242565,world,checkerboard,2.42778468132,0.800493836403,1.53550803661,-0.374960005283,-0.639096975327,-0.600067198277,-0.301462382078
1535040126796021971,0,1535040126710249116,world,kinect2_mocap,0.104317083955,-1.32803559303,1.35409355164,-0.0304828062654,-0.00114768755157,0.0578341335058,-0.997860014439
1535040126803604669,0,1535040126720454280,world,hand,0.132580831647,0.137869760394,1.02787208557,0.106910929084,0.0767938271165,-0.991096794605,-0.0199982598424
1535040126805530312,0,1535040126805399437,kinect2_link,kinect2_rgb_optical_frame,0.0,0.0,0.0,0.0,0.0,0.0,1.0
1535040126805536556,0,1535040126805399437,kinect2_rgb_optical_frame,kinect2_ir_optical_frame,-0.0519399138017,0.00333959742795,0.00875866802314,-0.00453113942441,-0.00375492295549,0.00308026364555,0.999977940409
1535040126805646972,0,1535040126720499452,world,checkerboard,2.42779183388,0.800509870052,1.53550553322,-0.375019282103,-0.639146864414,-0.599993646145,-0.30142891407
1535040126805652640,0,1535040126720506860,world,kinect2_mocap,0.10431830585,-1.32803499699,1.35409271717,-0.0304671768099,-0.00114585284609,0.0578374043107,-0.997860372066
1535040126814283660,0,1535040126730801936,world,hand,0.132506430149,0.137819230556,1.02791273594,0.107074990869,0.076664827764,-0.991083800793,-0.0202599577606
1535040126816469146,0,1535040126730836517,world,checkerboard,2.42777776718,0.800531387329,1.53552210331,-0.374914735556,-0.639010131359,-0.600161254406,-0.301515430212
1535040126816481474,0,1535040126730843915,world,kinect2_mocap,0.104319579899,-1.32803463936,1.35409188271,-0.0304506700486,-0.00114384689368,0.0578410923481,-0.997860610485
1535040126816485324,0,1535040126730856391,world,hand,0.132407322526,0.137765258551,1.02795433998,0.107100710273,0.0767537280917,-0.991067767143,-0.0205701962113
1535040126816489560,0,1535040126730861555,world,checkerboard,2.42777657509,0.800543606281,1.53552603722,-0.374909698963,-0.639162123203,-0.600068390369,-0.3013843894
1535040126816494614,0,1535040126730867914,world,kinect2_mocap,0.104320570827,-1.32803452015,1.35409080982,-0.0304346606135,-0.00114206876606,0.0578443147242,-0.997860968113
1535040126818717996,0,1535040126815473097,kinect2_link,kinect2_rgb_optical_frame,0.0,0.0,0.0,0.0,0.0,0.0,1.0
1535040126818730619,0,1535040126815473097,kinect2_rgb_optical_frame,kinect2_ir_optical_frame,-0.0519399138017,0.00333959742795,0.00875866802314,-0.00453113942441,-0.00375492295549,0.00308026364555,0.999977940409
1535040126822770004,0,1535040126859472838,/kinect2_mocap,/kinect2_link,0.0801417617159,0.0689299826583,-0.011685626472,-0.704332345391,-0.0271284587477,0.0479526774544,0.707729139351
1535040126823390765,0,1535040126740202504,world,hand,0.13231150806,0.137685850263,1.02798819542,0.107270307839,0.0766438990831,-0.991050899029,-0.0209035445005
1535040126825518390,0,1535040126740259059,world,checkerboard,2.42776465416,0.80053037405,1.53552603722,-0.37494713068,-0.639184236526,-0.600010216236,-0.301406800747
1535040126825528225,0,1535040126740270312,world,kinect2_mocap,0.104320712388,-1.32803487778,1.35409092903,-0.0304424315691,-0.0011415053159,0.057842515409,-0.997860848904
1535040126827143888,0,1535040126826884185,kinect2_link,kinect2_rgb_optical_frame,0.0,0.0,0.0,0.0,0.0,0.0,1.0
1535040126827159376,0,1535040126826884185,kinect2_rgb_optical_frame,kinect2_ir_optical_frame,-0.0519399138017,0.00333959742795,0.00875866802314,-0.00453113942441,-0.00375492295549,0.00308026364555,0.999977940409
1535040126833665147,0,1535040126750500917,world,hand,0.13219730556,0.137623980641,1.02801299095,0.107327714562,0.0766105949879,-0.991038262844,-0.0213278532028
1535040126836036517,0,1535040126750577165,world,checkerboard,2.42776727676,0.800551950932,1.5355232954,-0.374918401241,-0.639181852341,-0.60002553463,-0.30141684413
1535040126836046557,0,1535040126750588760,world,kinect2_mocap,0.104321591556,-1.32803452015,1.35408985615,-0.0304282158613,-0.00113990844693,0.0578458458185,-0.997861087322
1535040126837149524,0,1535040126836985795,kinect2_link,kinect2_rgb_optical_frame,0.0,0.0,0.0,0.0,0.0,0.0,1.0
1535040126837161470,0,1535040126836985795,kinect2_rgb_optical_frame,kinect2_ir_optical_frame,-0.0519399138017,0.00333959742795,0.00875866802314,-0.00453113942441,-0.00375492295549,0.00308026364555,0.999977940409
1535040126844184052,0,1535040126760854710,world,hand,0.132103845477,0.137555629015,1.0280469656,0.107530489564,0.0765850618482,-0.991011917591,-0.0216172486544
1535040126846719374,0,1535040126760888810,world,checkerboard,2.42776322365,0.800530135632,1.53553175926,-0.375012874603,-0.639214932919,-0.599948644638,-0.301382154226
1535040126846729740,0,1535040126760896616,world,kinect2_mocap,0.104321576655,-1.32803440094,1.35408997536,-0.0304375961423,-0.00113921309821,0.0578438192606,-0.997860848904
1535040126847219919,0,1535040126847065452,kinect2_link,kinect2_rgb_optical_frame,0.0,0.0,0.0,0.0,0.0,0.0,1.0
1535040126847229710,0,1535040126847065452,kinect2_rgb_optical_frame,kinect2_ir_optical_frame,-0.0519399138017,0.00333959742795,0.00875866802314,-0.00453113942441,-0.00375492295549,0.00308026364555,0.999977940409
1535040126853413816,0,1535040126770170757,world,hand,0.131991788745,0.13749268651,1.0280983448,0.10760051012,0.0764576122165,-0.991006195545,-0.0219827573746
1535040126855656981,0,1535040126770201779,world,checkerboard,2.42778015137,0.800557136536,1.53553473949,-0.374911814928,-0.63919955492,-0.600056767464,-0.301325321198
1535040126855672863,0,1535040126770209224,world,kinect2_mocap,0.104321427643,-1.32803452015,1.35409009457,-0.0304492432624,-0.00113909842912,0.0578417219222,-0.997860610485
1535040126857240259,0,1535040126857151278,kinect2_link,kinect2_rgb_optical_frame,0.0,0.0,0.0,0.0,0.0,0.0,1.0
1535040126857254852,0,1535040126857151278,kinect2_rgb_optical_frame,kinect2_ir_optical_frame,-0.0519399138017,0.00333959742795,0.00875866802314,-0.00453113942441,-0.00375492295549,0.00308026364555,0.999977940409
1535040126863697094,0,1535040126780502659,world,hand,0.131843090057,0.137440815568,1.02815341949,0.107718750834,0.0763086229563,-0.99099946022,-0.0222217589617
1535040126866099715,0,1535040126780529051,world,checkerboard,2.42777466774,0.800558745861,1.53552949429,-0.374932080507,-0.639167785645,-0.600056946278,-0.301367372274
1535040126866110070,0,1535040126780535987,world,kinect2_mocap,0.104321010411,-1.32803487778,1.35408997536,-0.0304586179554,-0.00113852776121,0.0578400939703,-0.997860491276
1535040126866114273,0,1535040126780544119,world,hand,0.13170646131,0.137377217412,1.02822756767,0.10785420239,0.075993321836,-0.991003394127,-0.0224681682885
1535040126866121817,0,1535040126780549242,world,checkerboard,2.42774367332,0.800539374352,1.53551948071,-0.374936789274,-0.639139413834,-0.600055992603,-0.301423460245
1535040126866128752,0,1535040126780554421,world,kinect2_mocap,0.104320652783,-1.3280352354,1.35409009457,-0.0304675064981,-0.00113851821516,0.0578384101391,-0.997860252857
1535040126867404893,0,1535040126867226909,kinect2_link,kinect2_rgb_optical_frame,0.0,0.0,0.0,0.0,0.0,0.0,1.0
1535040126867419462,0,1535040126867226909,kinect2_rgb_optical_frame,kinect2_ir_optical_frame,-0.0519399138017,0.00333959742795,0.00875866802314,-0.00453113942441,-0.00375492295549,0.00308026364555,0.999977940409
1535040126874241019,0,1535040126790855359,world,hand,0.131549999118,0.137330561876,1.02828967571,0.108117215335,0.0759230330586,-0.990973591805,-0.0227545015514
1535040126877473701,0,1535040126790901566,world,checkerboard,2.42775416374,0.800531804562,1.5355117321,-0.374953061342,-0.639164209366,-0.600031375885,-0.301399499178
1535040126877486935,0,1535040126790910198,world,kinect2_mocap,0.104320272803,-1.32803559303,1.35409045219,-0.0304759256542,-0.00113816244993,0.057836830616,-0.997860133648
1535040126877510655,0,1535040126877308511,kinect2_link,kinect2_rgb_optical_frame,0.0,0.0,0.0,0.0,0.0,0.0,1.0
1535040126877514581,0,1535040126877308511,kinect2_rgb_optical_frame,kinect2_ir_optical_frame,-0.0519399138017,0.00333959742795,0.00875866802314,-0.00453113942441,-0.00375492295549,0.00308026364555,0.999977940409
1535040126883454903,0,1535040126800253413,world,hand,0.131376713514,0.137245237827,1.02835738659,0.108267910779,0.0758003741503,-0.99095749855,-0.0231412891299
1535040126885836005,0,1535040126800284773,world,checkerboard,2.42775702477,0.800534427166,1.53551578522,-0.374964386225,-0.639159321785,-0.600061237812,-0.301336467266
1535040126885849154,0,1535040126800292137,world,kinect2_mocap,0.104319989681,-1.32803595066,1.35409080982,-0.0304862018675,-0.00113847455941,0.0578349046409,-0.997859895229
1535040126887567571,0,1535040126887391929,kinect2_link,kinect2_rgb_optical_frame,0.0,0.0,0.0,0.0,0.0,0.0,1.0
1535040126887578997,0,1535040126887391929,kinect2_rgb_optical_frame,kinect2_ir_optical_frame,-0.0519399138017,0.00333959742795,0.00875866802314,-0.00453113942441,-0.00375492295549,0.00308026364555,0.999977940409
1535040126893913953,0,1535040126810557727,world,hand,0.131187707186,0.137157440186,1.02842104435,0.108456932008,0.0758882686496,-0.990926325321,-0.0233058296144
1535040126896553898,0,1535040126810587447,world,checkerboard,2.42775607109,0.800518989563,1.53553175926,-0.374959588051,-0.639152109623,-0.600030303001,-0.301419168711
1535040126896575492,0,1535040126810594308,world,kinect2_mocap,0.104319572449,-1.32803583145,1.35409140587,-0.0304954443127,-0.0011383529054,0.0578331798315,-0.99785977602
1535040126897624119,0,1535040126897471977,kinect2_link,kinect2_rgb_optical_frame,0.0,0.0,0.0,0.0,0.0,0.0,1.0
1535040126897631107,0,1535040126897471977,kinect2_rgb_optical_frame,kinect2_ir_optical_frame,-0.0519399138017,0.00333959742795,0.00875866802314,-0.00453113942441,-0.00375492295549,0.00308026364555,0.999977940409
1535040126904173720,0,1535040126820877853,world,hand,0.130971893668,0.137061327696,1.02847766876,0.108540728688,0.0758666470647,-0.990909457207,-0.0236981380731
1535040126906249123,0,1535040126820917167,world,checkerboard,2.42776155472,0.800540089607,1.53554821014,-0.374944359064,-0.639150083065,-0.600038409233,-0.301426500082
1535040126906259471,0,1535040126820926711,world,kinect2_mocap,0.104319386184,-1.32803547382,1.3540917635,-0.0305025205016,-0.00113757653162,0.057832069695,-0.997859656811
1535040126907716002,0,1535040126907583006,kinect2_link,kinect2_rgb_optical_frame,0.0,0.0,0.0,0.0,0.0,0.0,1.0
1535040126907725498,0,1535040126907583006,kinect2_rgb_optical_frame,kinect2_ir_optical_frame,-0.0519399138017,0.00333959742795,0.00875866802314,-0.00453113942441,-0.00375492295549,0.00308026364555,0.999977940409
1535040126913527246,0,1535040126830253208,world,hand,0.130769312382,0.136969402432,1.0285371542,0.108633600175,0.0757217258215,-0.99089717865,-0.0242427904159
1535040126915851992,0,1535040126830284956,world,checkerboard,2.42773556709,0.800542116165,1.53555464745,-0.374928772449,-0.639155089855,-0.600027799606,-0.301456391811
1535040126915866001,0,1535040126830292377,world,kinect2_mocap,0.104319170117,-1.32803535461,1.35409212112,-0.0305106602609,-0.00113709270954,0.0578305386007,-0.997859418392
1535040126915875151,0,1535040126830302195,world,hand,0.130574300885,0.13688492775,1.02857875824,0.108679309487,0.0755375698209,-0.990899980068,-0.0244987234473
1535040126915880266,0,1535040126830307433,world,checkerboard,2.42774915695,0.800539016724,1.53554844856,-0.374947547913,-0.639131367207,-0.600048422813,-0.301442176104
1535040126915886672,0,1535040126830312606,world,kinect2_mocap,0.104318760335,-1.3280352354,1.35409247875,-0.0305198784918,-0.00113691738807,0.0578285492957,-0.997859299183
1535040126918239453,0,1535040126917671458,kinect2_link,kinect2_rgb_optical_frame,0.0,0.0,0.0,0.0,0.0,0.0,1.0
1535040126918259810,0,1535040126917671458,kinect2_rgb_optical_frame,kinect2_ir_optical_frame,-0.0519399138017,0.00333959742795,0.00875866802314,-0.00453113942441,-0.00375492295549,0.00308026364555,0.999977940409
1535040126923780938,0,1535040126840579782,world,hand,0.130338430405,0.136775016785,1.02861309052,0.108873590827,0.0753620937467,-0.990886032581,-0.024739889428
1535040126926213531,0,1535040126840610518,world,checkerboard,2.42775082588,0.800562739372,1.53553748131,-0.375023245811,-0.639190077782,-0.599947214127,-0.301424890757
1535040126926238334,0,1535040126840618461,world,kinect2_mocap,0.104318320751,-1.32803535461,1.35409259796,-0.030528459698,-0.00113691668957,0.0578272975981,-0.997859060764
1535040126929606113,0,1535040126927781170,kinect2_link,kinect2_rgb_optical_frame,0.0,0.0,0.0,0.0,0.0,0.0,1.0
1535040126929620619,0,1535040126927781170,kinect2_rgb_optical_frame,kinect2_ir_optical_frame,-0.0519399138017,0.00333959742795,0.00875866802314,-0.00453113942441,-0.00375492295549,0.00308026364555,0.999977940409
1535040126934085352,0,1535040126850923832,world,hand,0.130659908056,0.137096524239,1.02825939655,0.10779838264,0.0756514072418,-0.990990519524,-0.0243802573532
1535040126936594328,0,1535040126850936241,world,checkerboard,2.427765131,0.800561547279,1.53552186489,-0.375013709068,-0.639119982719,-0.599970877171,-0.301538228989
1535040126936605253,0,1535040126850942361,world,kinect2_mocap,0.104317717254,-1.3280352354,1.35409247875,-0.0305379945785,-0.00113686244003,0.0578252896667,-0.997858941555
1535040126938007495,0,1535040126937891702,kinect2_link,kinect2_rgb_optical_frame,0.0,0.0,0.0,0.0,0.0,0.0,1.0
1535040126938016540,0,1535040126937891702,kinect2_rgb_optical_frame,kinect2_ir_optical_frame,-0.0519399138017,0.00333959742795,0.00875866802314,-0.00453113942441,-0.00375492295549,0.00308026364555,0.999977940409
1535040126942831636,0,1535040126979577247,/kinect2_mocap,/kinect2_link,0.0801417617159,0.0689299826583,-0.011685626472,-0.704332345391,-0.0271284587477,0.0479526774544,0.707729139351
1535040126943424484,0,1535040126860234852,world,hand,0.129833728075,0.136535599828,1.02874922752,0.108916081488,0.0748979449272,-0.990895688534,-0.0255627240986
1535040126945491861,0,1535040126860246369,world,checkerboard,2.4277715683,0.800571143627,1.53551268578,-0.375061690807,-0.639113426208,-0.599935889244,-0.30156224966
1535040126945498489,0,1535040126860252569,world,kinect2_mocap,0.104318186641,-1.32803463936,1.35409116745,-0.0305240266025,-0.00113578245509,0.0578283593059,-0.997859179974
1535040126948096323,0,1535040126947968487,kinect2_link,kinect2_rgb_optical_frame,0.0,0.0,0.0,0.0,0.0,0.0,1.0
1535040126948104768,0,1535040126947968487,kinect2_rgb_optical_frame,kinect2_ir_optical_frame,-0.0519399138017,0.00333959742795,0.00875866802314,-0.00453113942441,-0.00375492295549,0.00308026364555,0.999977940409
1535040126954010539,0,1535040126870467069,world,hand,0.129551842809,0.136370629072,1.02882349491,0.109207652509,0.0748854205012,-0.99085265398,-0.026018736884
1535040126956049198,0,1535040126870482217,world,checkerboard,2.4277946949,0.80057400465,1.53550040722,-0.375137239695,-0.63922393322,-0.599776625633,-0.301550835371
1535040126956065009,0,1535040126870489846,world,kinect2_mocap,0.104318797588,-1.32803380489,1.35409009457,-0.0305108148605,-0.00113480072469,0.0578312426805,-0.997859418392
1535040126958259821,0,1535040126958048338,kinect2_link,kinect2_rgb_optical_frame,0.0,0.0,0.0,0.0,0.0,0.0,1.0
1535040126958275166,0,1535040126958048338,kinect2_rgb_optical_frame,kinect2_ir_optical_frame,-0.0519399138017,0.00333959742795,0.00875866802314,-0.00453113942441,-0.00375492295549,0.00308026364555,0.999977940409
1535040126964067272,0,1535040126880760707,world,hand,0.129218995571,0.13619376719,1.0289106369,0.109434589744,0.0748402252793,-0.990824282169,-0.0262729823589
1535040126967026337,0,1535040126880778255,world,checkerboard,2.42783308029,0.800619244576,1.53550887108,-0.375105559826,-0.639137625694,-0.599897503853,-0.301532745361
1535040126967038009,0,1535040126880786049,world,kinect2_mocap,0.104319438338,-1.32803320885,1.35408902168,-0.030496833846,-0.00113350001629,0.0578345544636,-0.997859656811
1535040126967042953,0,1535040126880798427,world,hand,0.128871276975,0.136037677526,1.02899348736,0.109813921154,0.0747792571783,-0.990774333477,-0.0267425496131
1535040126967047020,0,1535040126880804311,world,checkerboard,2.42783284187,0.800621628761,1.53551638126,-0.375038832426,-0.639071583748,-0.600003004074,-0.30154594779
1535040126967052594,0,1535040126880809778,world,kinect2_mocap,0.104320168495,-1.3280326128,1.3540879488,-0.0304805599153,-0.00113234505989,0.0578383989632,-0.997859895229
1535040126968303260,0,1535040126968146954,kinect2_link,kinect2_rgb_optical_frame,0.0,0.0,0.0,0.0,0.0,0.0,1.0
1535040126968312976,0,1535040126968146954,kinect2_rgb_optical_frame,kinect2_ir_optical_frame,-0.0519399138017,0.00333959742795,0.00875866802314,-0.00453113942441,-0.00375492295549,0.00308026364555,0.999977940409
1535040126974452675,0,1535040126891087517,world,hand,0.128454953432,0.135881751776,1.02907252312,0.110256679356,0.0745910108089,-0.990725278854,-0.0272624772042
1535040126976909259,0,1535040126891130053,world,checkerboard,2.4278550148,0.800633132458,1.53552317619,-0.374938815832,-0.639130413532,-0.600032925606,-0.301485836506
1535040126976920842,0,1535040126891139341,world,kinect2_mocap,0.104321047664,-1.32803225517,1.35408723354,-0.0304656513035,-0.00113125122152,0.0578422099352,-0.997860133648
1535040126978337669,0,1535040126978227070,kinect2_link,kinect2_rgb_optical_frame,0.0,0.0,0.0,0.0,0.0,0.0,1.0
1535040126978346134,0,1535040126978227070,kinect2_rgb_optical_frame,kinect2_ir_optical_frame,-0.0519399138017,0.00333959742795,0.00875866802314,-0.00453113942441,-0.00375492295549,0.00308026364555,0.999977940409
1535040126983648271,0,1535040126900433640,world,hand,0.128067806363,0.1356793046,1.02915370464,0.110595472157,0.0742704644799,-0.990694046021,-0.0278928410262
1535040126985966523,0,1535040126900465499,world,checkerboard,2.42785716057,0.800633847713,1.53552949429,-0.374864161015,-0.639243781567,-0.600027263165,-0.301349490881
1535040126985982790,0,1535040126900473411,world,kinect2_mocap,0.104322016239,-1.32803189754,1.35408651829,-0.0304501671344,-0.00112998450641,0.0578464865685,-0.997860372066
1535040126988433956,0,1535040126988306498,kinect2_link,kinect2_rgb_optical_frame,0.0,0.0,0.0,0.0,0.0,0.0,1.0
1535040126988448344,0,1535040126988306498,kinect2_rgb_optical_frame,kinect2_ir_optical_frame,-0.0519399138017,0.00333959742795,0.00875866802314,-0.00453113942441,-0.00375492295549,0.00308026364555,0.999977940409
1535040126994115146,0,1535040126910762675,world,hand,0.127655982971,0.135487601161,1.02924919128,0.110865928233,0.074083417654,-0.990654170513,-0.0287210345268
1535040126996485747,0,1535040126910797797,world,checkerboard,2.42784905434,0.800628066063,1.53553521633,-0.374799191952,-0.639108777046,-0.600190520287,-0.301391601562
1535040126996499260,0,1535040126910805451,world,kinect2_mocap,0.104322269559,-1.32803153992,1.35408723354,-0.0304591059685,-0.00112925225403,0.0578447952867,-0.997860252857
1535040126998493934,0,1535040126998383125,kinect2_link,kinect2_rgb_optical_frame,0.0,0.0,0.0,0.0,0.0,0.0,1.0
1535040126998505134,0,1535040126998383125,kinect2_rgb_optical_frame,kinect2_ir_optical_frame,-0.0519399138017,0.00333959742795,0.00875866802314,-0.00453113942441,-0.00375492295549,0.00308026364555,0.999977940409
1535040127004407265,0,1535040126921116371,world,hand,0.127223864198,0.135324850678,1.02935791016,0.111262477934,0.0741045698524,-0.990589261055,-0.0293620862067
1535040127007020460,0,1535040126921130472,world,checkerboard,2.42782068253,0.800589323044,1.53557324409,-0.374805450439,-0.639125645161,-0.600197255611,-0.301334649324
1535040127007029994,0,1535040126921136503,world,kinect2_mocap,0.104322642088,-1.32803142071,1.35408747196,-0.0304669290781,-0.00112839241046,0.0578434951603,-0.997860014439
1535040127008703036,0,1535040127008498022,kinect2_link,kinect2_rgb_optical_frame,0.0,0.0,0.0,0.0,0.0,0.0,1.0
1535040127008712988,0,1535040127008498022,kinect2_rgb_optical_frame,kinect2_ir_optical_frame,-0.0519399138017,0.00333959742795,0.00875866802314,-0.00453113942441,-0.00375492295549,0.00308026364555,0.999977940409
1535040127013822649,0,1535040126930534278,world,hand,0.126755669713,0.135143771768,1.02946484089,0.111459217966,0.0741024464369,-0.990542590618,-0.0301851648837
1535040127015881592,0,1535040126930572893,world,checkerboard,2.42780256271,0.800555109978,1.53557705879,-0.374879926443,-0.639104247093,-0.600153446198,-0.301374912262
1535040127015892410,0,1535040126930580196,world,kinect2_mocap,0.104323029518,-1.3280313015,1.35408771038,-0.0304748099297,-0.00112754828297,0.0578421652317,-0.997859895229
1535040127015902934,0,1535040126930587650,world,hand,0.126259714365,0.134958446026,1.02959060669,0.111819721758,0.0742800906301,-0.990463972092,-0.030985692516
1535040127015909135,0,1535040126930593015,world,checkerboard,2.42778515816,0.800534904003,1.53557038307,-0.374879390001,-0.639158844948,-0.600086569786,-0.301392585039
1535040127015914528,0,1535040126930597133,world,kinect2_mocap,0.104324229062,-1.32803094387,1.35408675671,-0.030459837988,-0.00112599693239,0.0578461624682,-0.997860133648
1535040127023321358,0,1535040127018586706,kinect2_link,kinect2_rgb_optical_frame,0.0,0.0,0.0,0.0,0.0,0.0,1.0
1535040127023334056,0,1535040127018586706,kinect2_rgb_optical_frame,kinect2_ir_optical_frame,-0.0519399138017,0.00333959742795,0.00875866802314,-0.00453113942441,-0.00375492295549,0.00308026364555,0.999977940409
1535040127023983517,0,1535040126940776032,world,hand,0.125695198774,0.134748712182,1.02973794937,0.11227402091,0.0744456648827,-0.990383327007,-0.0315163955092
1535040127026372775,0,1535040126940783940,world,checkerboard,2.42777824402,0.800516605377,1.53555321693,-0.374944478273,-0.639156460762,-0.600057840347,-0.301373928785
1535040127026388711,0,1535040126940787912,world,kinect2_mocap,0.104325294495,-1.32803082466,1.35408580303,-0.0304458253086,-0.00112477864604,0.0578496307135,-0.997860372066
1535040127028898331,0,1535040127028723619,kinect2_link,kinect2_rgb_optical_frame,0.0,0.0,0.0,0.0,0.0,0.0,1.0
1535040127028909425,0,1535040127028723619,kinect2_rgb_optical_frame,kinect2_ir_optical_frame,-0.0519399138017,0.00333959742795,0.00875866802314,-0.00453113942441,-0.00375492295549,0.00308026364555,0.999977940409
1535040127034237913,0,1535040126951000222,world,hand,0.125143766403,0.134518325329,1.02986645699,0.112553372979,0.074279434979,-0.990332663059,-0.0324908085167
1535040127036420685,0,1535040126951018389,world,checkerboard,2.42777585983,0.800501048565,1.53555142879,-0.37490811944,-0.639142215252,-0.600090622902,-0.301384240389
1535040127036433182,0,1535040126951038521,world,kinect2_mocap,0.104326330125,-1.32803046703,1.35408508778,-0.0304321888834,-0.00112366757821,0.0578529201448,-0.997860610485
1535040127038920368,0,1535040127038800157,kinect2_link,kinect2_rgb_optical_frame,0.0,0.0,0.0,0.0,0.0,0.0,1.0
1535040127038977114,0,1535040127038800157,kinect2_rgb_optical_frame,kinect2_ir_optical_frame,-0.0519399138017,0.00333959742795,0.00875866802314,-0.00453113942441,-0.00375492295549,0.00308026364555,0.999977940409
1535040127043680313,0,1535040126960344935,world,hand,0.124584071338,0.134289383888,1.03002667427,0.112844072282,0.0738549754024,-0.990292608738,-0.0336501635611
1535040127047549028,0,1535040126960357037,world,checkerboard,2.42776966095,0.800507366657,1.53553426266,-0.374931633472,-0.639110982418,-0.600092947483,-0.301416367292
1535040127047567708,0,1535040126960361575,world,kinect2_mocap,0.104327194393,-1.32803010941,1.35408461094,-0.0304183550179,-0.00112270819955,0.0578560307622,-0.997860848904
1535040127049052270,0,1535040127048875641,kinect2_link,kinect2_rgb_optical_frame,0.0,0.0,0.0,0.0,0.0,0.0,1.0
1535040127049070016,0,1535040127048875641,kinect2_rgb_optical_frame,kinect2_ir_optical_frame,-0.0519399138017,0.00333959742795,0.00875866802314,-0.00453113942441,-0.00375492295549,0.00308026364555,0.999977940409
1535040127053988470,0,1535040126970647300,world,hand,0.123938821256,0.134057044983,1.03021228313,0.113121435046,0.0736278891563,-0.990250587463,-0.0344440937042
1535040127056148389,0,1535040126970656571,world,checkerboard,2.42776560783,0.800511717796,1.53553402424,-0.37490567565,-0.639157056808,-0.60008507967,-0.301366776228
1535040127056164953,0,1535040126970660790,world,kinect2_mocap,0.104327253997,-1.32802975178,1.35408508778,-0.0304291453212,-0.00112274335697,0.0578538663685,-0.997860610485
1535040127061719205,0,1535040127058959873,kinect2_link,kinect2_rgb_optical_frame,0.0,0.0,0.0,0.0,0.0,0.0,1.0
1535040127061729541,0,1535040127058959873,kinect2_rgb_optical_frame,kinect2_ir_optical_frame,-0.0519399138017,0.00333959742795,0.00875866802314,-0.00453113942441,-0.00375492295549,0.00308026364555,0.999977940409
1535040127062855780,0,1535040127099665000,/kinect2_mocap,/kinect2_link,0.0801417617159,0.0689299826583,-0.011685626472,-0.704332345391,-0.0271284587477,0.0479526774544,0.707729139351
1535040127064034905,0,1535040126980897230,world,hand,0.123213678598,0.133806347847,1.03040874004,0.113334491849,0.073509119451,-0.990216493607,-0.034973513335
1535040127065947560,0,1535040126980933500,world,checkerboard,2.42774200439,0.800502002239,1.53553950787,-0.374965906143,-0.639122188091,-0.600067853928,-0.301400125027
1535040127065957123,0,1535040126980945066,world,kinect2_mocap,0.104327119887,-1.32802939415,1.35408556461,-0.0304384529591,-0.00112206838094,0.0578516833484,-0.997860491276
1535040127065976127,0,1535040126980959008,world,hand,0.12240549922,0.13352958858,1.03062200546,0.113429933786,0.0731163099408,-0.990180313587,-0.0364787355065
1535040127065980368,0,1535040126980965308,world,checkerboard,2.42774868011,0.800503194332,1.53554368019,-0.374992877245,-0.639158964157,-0.59999114275,-0.301441162825
1535040127065986457,0,1535040126980971255,world,kinect2_mocap,0.104327112436,-1.32802891731,1.35408604145,-0.0304464455694,-0.0011213615071,0.0578491091728,-0.997860372066
1535040127069159860,0,1535040127069044761,kinect2_link,kinect2_rgb_optical_frame,0.0,0.0,0.0,0.0,0.0,0.0,1.0
1535040127069173029,0,1535040127069044761,kinect2_rgb_optical_frame,kinect2_ir_optical_frame,-0.0519399138017,0.00333959742795,0.00875866802314,-0.00453113942441,-0.00375492295549,0.00308026364555,0.999977940409
1535040127073407141,0,1535040126990175081,world,hand,0.121628262103,0.133302882314,1.03084278107,0.114549025893,0.0733721777797,-0.989944934845,-0.0387845374644
1535040127075539326,0,1535040126990188106,world,checkerboard,2.42777776718,0.800522685051,1.53555071354,-0.375020742416,-0.639156877995,-0.599941134453,-0.301510721445
1535040127075555217,0,1535040126990194388,world,kinect2_mocap,0.104328006506,-1.32802820206,1.35408556461,-0.0304312631488,-0.00111962866504,0.0578518472612,-0.997860610485
1535040127079365072,0,1535040127079123414,kinect2_link,kinect2_rgb_optical_frame,0.0,0.0,0.0,0.0,0.0,0.0,1.0
1535040127079378600,0,1535040127079123414,kinect2_rgb_optical_frame,kinect2_ir_optical_frame,-0.0519399138017,0.00333959742795,0.00875866802314,-0.00453113942441,-0.00375492295549,0.00308026364555,0.999977940409
1535040127083727174,0,1535040127000458516,world,hand,0.120746701956,0.133064553142,1.03106284142,0.115728221834,0.0734433680773,-0.989747166634,-0.0401686839759
1535040127087167590,0,1535040127000476520,world,checkerboard,2.42777228355,0.800564706326,1.53555727005,-0.374947249889,-0.639152526855,-0.60002720356,-0.301440060139
1535040127087179699,0,1535040127000482658,world,kinect2_mocap,0.10432882607,-1.3280274868,1.35408508778,-0.0304154194891,-0.00111801398452,0.0578543394804,-0.997860968113
1535040127089336577,0,1535040127089209959,kinect2_link,kinect2_rgb_optical_frame,0.0,0.0,0.0,0.0,0.0,0.0,1.0
1535040127089345895,0,1535040127089209959,kinect2_rgb_optical_frame,kinect2_ir_optical_frame,-0.0519399138017,0.00333959742795,0.00875866802314,-0.00453113942441,-0.00375492295549,0.00308026364555,0.999977940409
1535040127093933099,0,1535040127010684082,world,hand,0.119836583734,0.132817193866,1.03131747246,0.116027340293,0.0732552632689,-0.98968398571,-0.041194088757
1535040127096472253,0,1535040127010714760,world,checkerboard,2.42780208588,0.80060595274,1.53553724289,-0.374884098768,-0.639118373394,-0.60009086132,-0.301464021206
1535040127096511211,0,1535040127010722144,world,kinect2_mocap,0.104329630733,-1.32802700996,1.35408461094,-0.0304012969136,-0.0011171780061,0.0578570477664,-0.997861206532
1535040127099448473,0,1535040127099294115,kinect2_link,kinect2_rgb_optical_frame,0.0,0.0,0.0,0.0,0.0,0.0,1.0
1535040127099460273,0,1535040127099294115,kinect2_rgb_optical_frame,kinect2_ir_optical_frame,-0.0519399138017,0.00333959742795,0.00875866802314,-0.00453113942441,-0.00375492295549,0.00308026364555,0.999977940409
1535040127104259549,0,1535040127021061646,world,hand,0.118723452091,0.132458597422,1.03162062168,0.11623544246,0.0725031718612,-0.989674866199,-0.0421467833221
1535040127106245320,0,1535040127021094541,world,checkerboard,2.42780208588,0.800598204136,1.53554069996,-0.374881207943,-0.639125049114,-0.60008752346,-0.301460117102
1535040127106255232,0,1535040127021102510,world,kinect2_mocap,0.104330360889,-1.32802677155,1.3540841341,-0.0303874313831,-0.00111596728675,0.0578599534929,-0.997861564159
1535040127109742346,0,1535040127109412529,kinect2_link,kinect2_rgb_optical_frame,0.0,0.0,0.0,0.0,0.0,0.0,1.0
1535040127109754901,0,1535040127109412529,kinect2_rgb_optical_frame,kinect2_ir_optical_frame,-0.0519399138017,0.00333959742795,0.00875866802314,-0.00453113942441,-0.00375492295549,0.00308026364555,0.999977940409
1535040127115452751,0,1535040127030418338,world,hand,0.11764460057,0.132173627615,1.03191483021,0.117079935968,0.0720138400793,-0.989532470703,-0.0439537204802
1535040127117552119,0,1535040127030451955,world,checkerboard,2.42779421806,0.800580024719,1.53554177284,-0.374917656183,-0.639109671116,-0.600103020668,-0.301416754723
1535040127117584473,0,1535040127030459397,world,kinect2_mocap,0.104330927134,-1.32802677155,1.35408365726,-0.0303734987974,-0.0011145202443,0.057863406837,-0.997861802578
1535040127117591144,0,1535040127030469072,world,hand,0.116663143039,0.131948962808,1.03224337101,0.117663361132,0.0717502608895,-0.989377081394,-0.0462626181543
1535040127117595225,0,1535040127030474192,world,checkerboard,2.42779421806,0.800580859184,1.5355553627,-0.374953538179,-0.639187812805,-0.600033998489,-0.301343858242
1535040127117598780,0,1535040127030479394,world,kinect2_mocap,0.104331441224,-1.32802653313,1.35408294201,-0.0303600877523,-0.00111340975855,0.0578663386405,-0.997862040997
1535040127119716574,0,1535040127119544128,kinect2_link,kinect2_rgb_optical_frame,0.0,0.0,0.0,0.0,0.0,0.0,1.0
1535040127119731122,0,1535040127119544128,kinect2_rgb_optical_frame,kinect2_ir_optical_frame,-0.0519399138017,0.00333959742795,0.00875866802314,-0.00453113942441,-0.00375492295549,0.00308026364555,0.999977940409
1535040127124290727,0,1535040127040813363,world,hand,0.115466728806,0.131651625037,1.03260600567,0.118269175291,0.0716053768992,-0.989253818989,-0.0475615113974
1535040127126554074,0,1535040127040830492,world,checkerboard,2.42780160904,0.800588726997,1.53554832935,-0.374876409769,-0.639107048512,-0.600134670734,-0.30141055584
1535040127126574173,0,1535040127040838031,world,kinect2_mocap,0.104331098497,-1.32802677155,1.35408341885,-0.0303695686162,-0.00111370615195,0.0578640066087,-0.997861802578
1535040127131212576,0,1535040127129646358,kinect2_link,kinect2_rgb_optical_frame,0.0,0.0,0.0,0.0,0.0,0.0,1.0
1535040127131225521,0,1535040127129646358,kinect2_rgb_optical_frame,kinect2_ir_optical_frame,-0.0519399138017,0.00333959742795,0.00875866802314,-0.00453113942441,-0.00375492295549,0.00308026364555,0.999977940409
1535040127133176883,0,1535040127049979370,world,hand,0.114138528705,0.131295517087,1.03296542168,0.11928229779,0.0711415559053,-0.98911511898,-0.0485985353589
1535040127135572540,0,1535040127049990031,world,checkerboard,2.4277575016,0.800567865372,1.53554189205,-0.374920040369,-0.639120876789,-0.600063681602,-0.301468133926
1535040127135587739,0,1535040127049994178,world,kinect2_mocap,0.104331448674,-1.32802653313,1.35408294201,-0.0303552523255,-0.0011130576022,0.0578673742712,-0.997862040997
1535040127139881542,0,1535040127139770991,kinect2_link,kinect2_rgb_optical_frame,0.0,0.0,0.0,0.0,0.0,0.0,1.0
1535040127139892945,0,1535040127139770991,kinect2_rgb_optical_frame,kinect2_ir_optical_frame,-0.0519399138017,0.00333959742795,0.00875866802314,-0.00453113942441,-0.00375492295549,0.00308026364555,0.999977940409
1535040127143517426,0,1535040127060251009,world,hand,0.112952724099,0.131029203534,1.03335428238,0.120636589825,0.0716192424297,-0.988829791546,-0.0503315478563
1535040127145915382,0,1535040127060260272,world,checkerboard,2.42774987221,0.800595283508,1.53554570675,-0.374984443188,-0.639212846756,-0.599922955036,-0.301473259926
1535040127145925045,0,1535040127060264377,world,kinect2_mocap,0.104330807924,-1.32802700996,1.35408341885,-0.0303655024618,-0.00111338007264,0.0578650347888,-0.997861921787
1535040127151747060,0,1535040127149848171,kinect2_link,kinect2_rgb_optical_frame,0.0,0.0,0.0,0.0,0.0,0.0,1.0
1535040127152472607,0,1535040127149848171,kinect2_rgb_optical_frame,kinect2_ir_optical_frame,-0.0519399138017,0.00333959742795,0.00875866802314,-0.00453113942441,-0.00375492295549,0.00308026364555,0.999977940409
1535040127153856247,0,1535040127070506401,world,hand,0.111684508622,0.130700230598,1.0337511301,0.120907850564,0.0710962712765,-0.988726317883,-0.0524125099182
1535040127156122791,0,1535040127070540419,world,checkerboard,2.42772245407,0.800597429276,1.5355386734,-0.37492826581,-0.639225542545,-0.59996598959,-0.301430523396
1535040127156134958,0,1535040127070547696,world,kinect2_mocap,0.104331284761,-1.32802700996,1.35408318043,-0.0303524136543,-0.00111296784598,0.0578683950007,-0.997862040997
1535040127161848879,0,1535040127161691021,kinect2_link,kinect2_rgb_optical_frame,0.0,0.0,0.0,0.0,0.0,0.0,1.0
1535040127161861912,0,1535040127161691021,kinect2_rgb_optical_frame,kinect2_ir_optical_frame,-0.0519399138017,0.00333959742795,0.00875866802314,-0.00453113942441,-0.00375492295549,0.00308026364555,0.999977940409
1535040127164247045,0,1535040127080909475,world,hand,0.110374011099,0.130337327719,1.03418910503,0.120716899633,0.0705550387502,-0.988701045513,-0.0540343783796
1535040127166709125,0,1535040127080942721,world,checkerboard,2.42773461342,0.800573706627,1.53555691242,-0.374953836203,-0.639110445976,-0.600026428699,-0.301522612572
1535040127166719923,0,1535040127080951075,world,kinect2_mocap,0.104331709445,-1.32802677155,1.35408294201,-0.0303383488208,-0.00111229228787,0.0578718185425,-0.997862279415
1535040127166724982,0,1535040127080961096,world,hand,0.109030157328,0.130001470447,1.0346237421,0.121308922768,0.070126183331,-0.988594293594,-0.0552066266537
1535040127166728697,0,1535040127080966109,world,checkerboard,2.42775321007,0.800570964813,1.53557312489,-0.374992251396,-0.639165401459,-0.599976658821,-0.301457226276
1535040127166756756,0,1535040127080971086,world,kinect2_mocap,0.104332208633,-1.32802653313,1.35408270359,-0.03032508865,-0.00111121800728,0.0578747726977,-0.997862517834
1535040127171904895,0,1535040127171767807,kinect2_link,kinect2_rgb_optical_frame,0.0,0.0,0.0,0.0,0.0,0.0,1.0
1535040127171913443,0,1535040127171767807,kinect2_rgb_optical_frame,kinect2_ir_optical_frame,-0.0519399138017,0.00333959742795,0.00875866802314,-0.00453113942441,-0.00375492295549,0.00308026364555,0.999977940409
1535040127173597408,0,1535040127090224940,world,hand,0.107547149062,0.129616722465,1.03509151936,0.121645994484,0.0700806677341,-0.988464713097,-0.0568202286959
1535040127175734381,0,1535040127090254517,world,checkerboard,2.42775177956,0.800590693951,1.53557348251,-0.374849826097,-0.63923150301,-0.60004812479,-0.301351964474
1535040127175743493,0,1535040127090262048,world,kinect2_mocap,0.104331851006,-1.32802653313,1.35408365726,-0.0303354654461,-0.00111095199827,0.057872787118,-0.997862398624
1535040127182464872,0,1535040127181846920,kinect2_link,kinect2_rgb_optical_frame,0.0,0.0,0.0,0.0,0.0,0.0,1.0
1535040127182475005,0,1535040127181846920,kinect2_rgb_optical_frame,kinect2_ir_optical_frame,-0.0519399138017,0.00333959742795,0.00875866802314,-0.00453113942441,-0.00375492295549,0.00308026364555,0.999977940409
1535040127182940439,0,1535040127219761150,/kinect2_mocap,/kinect2_link,0.0801417617159,0.0689299826583,-0.011685626472,-0.704332345391,-0.0271284587477,0.0479526774544,0.707729139351
1535040127183743021,0,1535040127100569861,world,hand,0.106131099164,0.129220142961,1.03558552265,0.121287167072,0.069252230227,-0.988450109959,-0.0588225238025
1535040127186131637,0,1535040127100578902,world,checkerboard,2.42772769928,0.800584971905,1.53556787968,-0.374916940928,-0.639244139194,-0.599981486797,-0.301374197006
1535040127186156174,0,1535040127100605897,world,kinect2_mocap,0.104331366718,-1.32802653313,1.35408461094,-0.0303468685597,-0.00111120776273,0.0578706748784,-0.997862160206
1535040127192591064,0,1535040127192337831,kinect2_link,kinect2_rgb_optical_frame,0.0,0.0,0.0,0.0,0.0,0.0,1.0
1535040127192602087,0,1535040127192337831,kinect2_rgb_optical_frame,kinect2_ir_optical_frame,-0.0519399138017,0.00333959742795,0.00875866802314,-0.00453113942441,-0.00375492295549,0.00308026364555,0.999977940409
1535040127194296598,0,1535040127110913226,world,hand,0.104522354901,0.128738790751,1.03607225418,0.12136631459,0.068664111197,-0.988385438919,-0.0604122020304
1535040127196849452,0,1535040127110929988,world,checkerboard,2.42770957947,0.80057311058,1.53556835651,-0.374876052141,-0.639153182507,-0.600087463856,-0.301407039165
1535040127196864485,0,1535040127110937719,world,kinect2_mocap,0.104330867529,-1.32802653313,1.35408532619,-0.0303578749299,-0.00111098040361,0.0578681863844,-0.997861921787
1535040127202676531,0,1535040127202426970,kinect2_link,kinect2_rgb_optical_frame,0.0,0.0,0.0,0.0,0.0,0.0,1.0
1535040127202688142,0,1535040127202426970,kinect2_rgb_optical_frame,kinect2_ir_optical_frame,-0.0519399138017,0.00333959742795,0.00875866802314,-0.00453113942441,-0.00375492295549,0.00308026364555,0.999977940409
1535040127203359656,0,1535040127120206550,world,hand,0.102783367038,0.128206938505,1.03657972813,0.122130669653,0.0688900798559,-0.98815625906,-0.0623336210847
1535040127205931967,0,1535040127120216290,world,checkerboard,2.42770671844,0.800579309464,1.53554809093,-0.374900102615,-0.639213204384,-0.600032031536,-0.301360309124
1535040127205942716,0,1535040127120221491,world,kinect2_mocap,0.104330338538,-1.32802677155,1.35408580303,-0.0303691700101,-0.00111105048563,0.0578657351434,-0.997861802578
1535040127212658833,0,1535040127212511081,kinect2_link,kinect2_rgb_optical_frame,0.0,0.0,0.0,0.0,0.0,0.0,1.0
1535040127212671999,0,1535040127212511081,kinect2_rgb_optical_frame,kinect2_ir_optical_frame,-0.0519399138017,0.00333959742795,0.00875866802314,-0.00453113942441,-0.00375492295549,0.00308026364555,0.999977940409
1535040127213752126,0,1535040127130529282,world,hand,0.10102199018,0.127685770392,1.03712046146,0.121975295246,0.0682789832354,-0.988145887852,-0.0634642615914
1535040127215903694,0,1535040127130538127,world,checkerboard,2.42771911621,0.800578892231,1.53552699089,-0.374939352274,-0.639203488827,-0.600013494492,-0.3013689816
1535040127215953449,0,1535040127130542998,world,kinect2_mocap,0.104329861701,-1.32802724838,1.35408627987,-0.0303811188787,-0.00111114117317,0.0578636266291,-0.997861564159
1535040127215958684,0,1535040127130602317,world,hand,0.0991485118866,0.127095788717,1.03771412373,0.122038513422,0.0675089731812,-0.98803550005,-0.0658413916826
1535040127215962779,0,1535040127130607277,world,checkerboard,2.42773914337,0.800569534302,1.53551733494,-0.374936252832,-0.639161527157,-0.600061357021,-0.301366597414
1535040127215973657,0,1535040127130610825,world,kinect2_mocap,0.104329504073,-1.32802772522,1.35408675671,-0.0303921606392,-0.00111140497029,0.0578614808619,-0.997861325741
1535040127222755643,0,1535040127222596193,kinect2_link,kinect2_rgb_optical_frame,0.0,0.0,0.0,0.0,0.0,0.0,1.0
1535040127222768818,0,1535040127222596193,kinect2_rgb_optical_frame,kinect2_ir_optical_frame,-0.0519399138017,0.00333959742795,0.00875866802314,-0.00453113942441,-0.00375492295549,0.00308026364555,0.999977940409
1535040127224131651,0,1535040127140836696,world,hand,0.0972375795245,0.126518219709,1.03835678101,0.123267032206,0.0681058838964,-0.987649023533,-0.0686757043004
1535040127226448769,0,1535040127140849359,world,checkerboard,2.42775464058,0.800584793091,1.5355463028,-0.374911010265,-0.639127612114,-0.600089907646,-0.301412910223
1535040127226466388,0,1535040127140856450,world,kinect2_mocap,0.104329355061,-1.32802820206,1.35408699512,-0.0304025243968,-0.00111145817209,0.057859826833,-0.997861087322
1535040127232911309,0,1535040127232711613,kinect2_link,kinect2_rgb_optical_frame,0.0,0.0,0.0,0.0,0.0,0.0,1.0
1535040127232989983,0,1535040127232711613,kinect2_rgb_optical_frame,kinect2_ir_optical_frame,-0.0519399138017,0.00333959742795,0.00875866802314,-0.00453113942441,-0.00375492295549,0.00308026364555,0.999977940409
1535040127233261561,0,1535040127150009710,world,hand,0.0951765850186,0.125890463591,1.03903615475,0.123053111136,0.0673211067915,-0.987648785114,-0.0698269754648
1535040127235204162,0,1535040127150022903,world,checkerboard,2.42776870728,0.800590276718,1.53555285931,-0.374860107899,-0.639148771763,-0.600103795528,-0.301403850317
1535040127235212125,0,1535040127150029639,world,kinect2_mocap,0.10432934016,-1.32802820206,1.35408747196,-0.0304112918675,-0.00111159775406,0.0578591488302,-0.997860848904
1535040127242984318,0,1535040127242826673,kinect2_link,kinect2_rgb_optical_frame,0.0,0.0,0.0,0.0,0.0,0.0,1.0
1535040127242997568,0,1535040127242826673,kinect2_rgb_optical_frame,kinect2_ir_optical_frame,-0.0519399138017,0.00333959742795,0.00875866802314,-0.00453113942441,-0.00375492295549,0.00308026364555,0.999977940409
1535040127243723404,0,1535040127160283529,world,hand,0.0931138023734,0.125256493688,1.0398567915,0.123305000365,0.0664563328028,-0.987498879433,-0.0722864717245
1535040127245875143,0,1535040127160298254,world,checkerboard,2.42775225639,0.800580084324,1.53554868698,-0.374896615744,-0.639146387577,-0.600070357323,-0.301429986954
1535040127245892863,0,1535040127160501728,world,kinect2_mocap,0.104330264032,-1.32802796364,1.35408675671,-0.0303963217884,-0.00111121579539,0.0578632429242,-0.997861087322
1535040127254319081,0,1535040127170906012,world,hand,0.0908532440662,0.124621316791,1.04066753387,0.12399635464,0.066297352314,-0.987293422222,-0.0740361064672
1535040127255116231,0,1535040127252919835,kinect2_link,kinect2_rgb_optical_frame,0.0,0.0,0.0,0.0,0.0,0.0,1.0
1535040127255128760,0,1535040127252919835,kinect2_rgb_optical_frame,kinect2_ir_optical_frame,-0.0519399138017,0.00333959742795,0.00875866802314,-0.00453113942441,-0.00375492295549,0.00308026364555,0.999977940409
1535040127256582496,0,1535040127170928047,world,checkerboard,2.42779660225,0.800584375858,1.53555512428,-0.374951094389,-0.639104187489,-0.600041508675,-0.301509022713
1535040127256596081,0,1535040127170934098,world,kinect2_mocap,0.104331299663,-1.32802820206,1.35408580303,-0.0303834192455,-0.00111102429219,0.0578669533134,-0.997861206532
1535040127263244981,0,1535040127263064713,kinect2_link,kinect2_rgb_optical_frame,0.0,0.0,0.0,0.0,0.0,0.0,1.0
1535040127263260921,0,1535040127263064713,kinect2_rgb_optical_frame,kinect2_ir_optical_frame,-0.0519399138017,0.00333959742795,0.00875866802314,-0.00453113942441,-0.00375492295549,0.00308026364555,0.999977940409
1535040127263438133,0,1535040127180255351,world,hand,0.0887107998133,0.123938336968,1.04161095619,0.124465852976,0.0654941350222,-0.987048268318,-0.0771653726697
1535040127265600868,0,1535040127180288358,world,checkerboard,2.42779612541,0.800586462021,1.53553843498,-0.374931722879,-0.639165759087,-0.600035429001,-0.301414966583
1535040127265609034,0,1535040127180296010,world,kinect2_mocap,0.104332238436,-1.32802820206,1.35408508778,-0.0303705725819,-0.00111065781675,0.057870503515,-0.99786144495
1535040127265614664,0,1535040127180305735,world,hand,0.0864456221461,0.123297765851,1.04257631302,0.126243695617,0.0651505365968,-0.986714243889,-0.0788233354688
1535040127265622677,0,1535040127180311023,world,checkerboard,2.42781877518,0.800582945347,1.53553557396,-0.374915480614,-0.639168024063,-0.600028216839,-0.301444679499
1535040127265629547,0,1535040127180316036,world,kinect2_mocap,0.104332357645,-1.32802844048,1.35408556461,-0.0303820688277,-0.00111141079105,0.0578687638044,-0.997861206532
1535040127273548025,0,1535040127273153577,kinect2_link,kinect2_rgb_optical_frame,0.0,0.0,0.0,0.0,0.0,0.0,1.0
1535040127273553567,0,1535040127273153577,kinect2_rgb_optical_frame,kinect2_ir_optical_frame,-0.0519399138017,0.00333959742795,0.00875866802314,-0.00453113942441,-0.00375492295549,0.00308026364555,0.999977940409
1535040127273965684,0,1535040127190549389,world,hand,0.0841125175357,0.122606858611,1.04362797737,0.127334833145,0.0638251379132,-0.986405611038,-0.0819523409009
1535040127276213714,0,1535040127190586360,world,checkerboard,2.42781376839,0.800575554371,1.5355284214,-0.374952435493,-0.639125287533,-0.600040078163,-0.30146548152
1535040127276224103,0,1535040127190593498,world,kinect2_mocap,0.104333169758,-1.32802844048,1.35408508778,-0.0303694624454,-0.00111091416329,0.0578718744218,-0.997861325741
1535040127284327288,0,1535040127200935336,world,hand,0.0817067846656,0.121879011393,1.04483306408,0.128619760275,0.0632641538978,-0.986150145531,-0.0834428519011
1535040127285054236,0,1535040127283318083,kinect2_link,kinect2_rgb_optical_frame,0.0,0.0,0.0,0.0,0.0,0.0,1.0
1535040127286478897,0,1535040127283318083,kinect2_rgb_optical_frame,kinect2_ir_optical_frame,-0.0519399138017,0.00333959742795,0.00875866802314,-0.00453113942441,-0.00375492295549,0.00308026364555,0.999977940409
1535040127286684444,0,1535040127200966175,world,checkerboard,2.4277946949,0.800586640835,1.53553414345,-0.374891608953,-0.639105796814,-0.600093603134,-0.301475942135
