%time,field.transforms0.header.seq,field.transforms0.header.stamp,field.transforms0.header.frame_id,field.transforms0.child_frame_id,field.transforms0.transform.translation.x,field.transforms0.transform.translation.y,field.transforms0.transform.translation.z,field.transforms0.transform.rotation.x,field.transforms0.transform.rotation.y,field.transforms0.transform.rotation.z,field.transforms0.transform.rotation.w
1535039845426964860,0,1535039845426577926,kinect2_link,kinect2_rgb_optical_frame,0.0,0.0,0.0,0.0,0.0,0.0,1.0
1535039845426991326,0,1535039845426577926,kinect2_rgb_optical_frame,kinect2_ir_optical_frame,-0.0519399138017,0.00333959742795,0.00875866802314,-0.00453113942441,-0.00375492295549,0.00308026364555,0.999977940409
1535039845431559864,0,1535039845350993913,world,hand,-0.182029500604,-0.0880297571421,1.198751688,0.00150051910896,0.0282024666667,-0.996391415596,-0.0800416618586
1535039845431575256,0,1535039845351019274,world,checkerboard,2.42782711983,0.800613999367,1.53554308414,-0.374888211489,-0.639222741127,-0.600039899349,-0.301339119673
1535039845431581333,0,1535039845351027233,world,kinect2_mocap,0.104219377041,-1.32799470425,1.35414350033,-0.0320226103067,-0.00167559902184,0.0574909485877,-0.997830927372
1535039845436806289,0,1535039845436676909,kinect2_link,kinect2_rgb_optical_frame,0.0,0.0,0.0,0.0,0.0,0.0,1.0
1535039845436819572,0,1535039845436676909,kinect2_rgb_optical_frame,kinect2_ir_optical_frame,-0.0519399138017,0.00333959742795,0.00875866802314,-0.00453113942441,-0.00375492295549,0.00308026364555,0.999977940409
1535039845440415763,0,1535039845360313653,world,hand,-0.182095333934,-0.0883344188333,1.19927179813,0.00226891622879,0.0284714270383,-0.996350169182,-0.0804410427809
1535039845442092428,0,1535039845360326431,world,checkerboard,2.42781066895,0.80062687397,1.53554832935,-0.374873042107,-0.639088273048,-0.600164294243,-0.301395565271
1535039845442102126,0,1535039845360332790,world,kinect2_mocap,0.104218430817,-1.32799470425,1.35414326191,-0.0320215933025,-0.00167500053067,0.0574910119176,-0.997831046581
1535039845447004428,0,1535039845446762537,kinect2_link,kinect2_rgb_optical_frame,0.0,0.0,0.0,0.0,0.0,0.0,1.0
1535039845447019907,0,1535039845446762537,kinect2_rgb_optical_frame,kinect2_ir_optical_frame,-0.0519399138017,0.00333959742795,0.00875866802314,-0.00453113942441,-0.00375492295549,0.00308026364555,0.999977940409
1535039845450812197,0,1535039845370562365,world,hand,-0.182091608644,-0.0886404886842,1.19992756844,0.00164231040981,0.0284207332879,-0.996338069439,-0.0806234627962
1535039845452898171,0,1535039845370614236,world,checkerboard,2.42782974243,0.800614535809,1.53555130959,-0.374851584435,-0.639087736607,-0.600166738033,-0.301418364048
1535039845452911530,0,1535039845370626502,world,kinect2_mocap,0.104217775166,-1.32799470425,1.35414302349,-0.0320217646658,-0.00167452369351,0.057491119951,-0.997831046581
1535039845452914571,0,1535039845370639736,world,hand,-0.182147651911,-0.0889513641596,1.2005418539,0.00193687353749,0.0292654167861,-0.996301293373,-0.0807692408562
1535039845452917711,0,1535039845370645303,world,checkerboard,2.42780661583,0.800607204437,1.53556346893,-0.374893903732,-0.639104425907,-0.600116193295,-0.301431298256
1535039845452922487,0,1535039845370651077,world,kinect2_mocap,0.104217357934,-1.32799470425,1.35414278507,-0.0320215038955,-0.00167371949647,0.0574906207621,-0.997831046581
1535039845460463155,0,1535039845456878132,kinect2_link,kinect2_rgb_optical_frame,0.0,0.0,0.0,0.0,0.0,0.0,1.0
1535039845460499740,0,1535039845456878132,kinect2_rgb_optical_frame,kinect2_ir_optical_frame,-0.0519399138017,0.00333959742795,0.00875866802314,-0.00453113942441,-0.00375492295549,0.00308026364555,0.999977940409
1535039845460887460,0,1535039845380891026,world,hand,-0.180719852448,-0.0897647440434,1.20153594017,0.0101891970262,0.0372206307948,-0.994361102581,-0.0987771004438
1535039845463064570,0,1535039845380926787,world,checkerboard,2.42780590057,0.800565779209,1.53556346893,-0.374983489513,-0.639087855816,-0.600031733513,-0.30152285099
1535039845463076193,0,1535039845380937452,world,kinect2_mocap,0.104217223823,-1.32799494267,1.35414278507,-0.0320208221674,-0.00167332275305,0.0574903972447,-0.997831046581
1535039845467146329,0,1535039845466979069,kinect2_link,kinect2_rgb_optical_frame,0.0,0.0,0.0,0.0,0.0,0.0,1.0
1535039845467160503,0,1535039845466979069,kinect2_rgb_optical_frame,kinect2_ir_optical_frame,-0.0519399138017,0.00333959742795,0.00875866802314,-0.00453113942441,-0.00375492295549,0.00308026364555,0.999977940409
1535039845470763579,0,1535039845390251102,world,hand,-0.181269615889,-0.0899100825191,1.20198118687,0.00929262023419,0.0370283871889,-0.994908988476,-0.0932673513889
1535039845472676911,0,1535039845390261128,world,checkerboard,2.42781805992,0.800579547882,1.53556931019,-0.374984115362,-0.639077186584,-0.600031256676,-0.301545798779
1535039845472686870,0,1535039845390265302,world,kinect2_mocap,0.104217372835,-1.3279954195,1.35414302349,-0.0320209898055,-0.00167368038092,0.057490196079,-0.997831046581
1535039845477163828,0,1535039845477054613,kinect2_link,kinect2_rgb_optical_frame,0.0,0.0,0.0,0.0,0.0,0.0,1.0
1535039845477173705,0,1535039845477054613,kinect2_rgb_optical_frame,kinect2_ir_optical_frame,-0.0519399138017,0.00333959742795,0.00875866802314,-0.00453113942441,-0.00375492295549,0.00308026364555,0.999977940409
1535039845480803062,0,1535039845400654133,world,hand,-0.180693298578,-0.0905405730009,1.20254874229,0.0101851411164,0.038117364049,-0.994211137295,-0.0999386906624
1535039845483102441,0,1535039845400665053,world,checkerboard,2.42779374123,0.800572812557,1.5355604887,-0.375055640936,-0.63916683197,-0.599917531013,-0.301493167877
1535039845483202500,0,1535039845400669222,world,kinect2_mocap,0.104217357934,-1.32799589634,1.35414302349,-0.0320221073925,-0.00167427677661,0.0574897713959,-0.997831046581
1535039845491131769,0,1535039845411007919,world,hand,-0.18070179224,-0.090969465673,1.20308899879,0.00986651610583,0.0390756875277,-0.994167506695,-0.100033529103
1535039845492805557,0,1535039845487128780,kinect2_link,kinect2_rgb_optical_frame,0.0,0.0,0.0,0.0,0.0,0.0,1.0
1535039845492819822,0,1535039845487128780,kinect2_rgb_optical_frame,kinect2_ir_optical_frame,-0.0519399138017,0.00333959742795,0.00875866802314,-0.00453113942441,-0.00375492295549,0.00308026364555,0.999977940409
1535039845493581133,0,1535039845411042350,world,checkerboard,2.42783284187,0.800598263741,1.53554964066,-0.375019520521,-0.639133512974,-0.599988341331,-0.301467597485
1535039845493588444,0,1535039845411052628,world,kinect2_mocap,0.104217253625,-1.32799613476,1.35414302349,-0.0320221297443,-0.00167422892991,0.0574894174933,-0.997831046581
1535039845498998409,0,1535039845498801258,kinect2_link,kinect2_rgb_optical_frame,0.0,0.0,0.0,0.0,0.0,0.0,1.0
1535039845499007076,0,1535039845498801258,kinect2_rgb_optical_frame,kinect2_ir_optical_frame,-0.0519399138017,0.00333959742795,0.00875866802314,-0.00453113942441,-0.00375492295549,0.00308026364555,0.999977940409
1535039845500354425,0,1535039845420287217,world,hand,-0.180687561631,-0.0913962423801,1.20364665985,0.00969268847257,0.0402547083795,-0.994135677814,-0.0998989418149
1535039845502646077,0,1535039845420296117,world,checkerboard,2.42783641815,0.800607979298,1.53554975986,-0.374946087599,-0.639058351517,-0.600107848644,-0.301480591297
1535039845502652282,0,1535039845420300123,world,kinect2_mocap,0.104217015207,-1.32799613476,1.35414278507,-0.0320222973824,-0.00167450367007,0.057489592582,-0.997831046581
1535039845502657720,0,1535039845420306089,world,hand,-0.180790126324,-0.0917940139771,1.20427203178,0.0104340407997,0.0416006371379,-0.994140207767,-0.0992256402969
1535039845502665964,0,1535039845420309438,world,checkerboard,2.42782521248,0.800615727901,1.53553164005,-0.374883174896,-0.639034450054,-0.600185096264,-0.301455676556
1535039845502675278,0,1535039845420312777,world,kinect2_mocap,0.104216791689,-1.32799613476,1.35414230824,-0.0320220477879,-0.00167432299349,0.0574896484613,-0.997831046581
1535039845509093467,0,1535039845508920756,kinect2_link,kinect2_rgb_optical_frame,0.0,0.0,0.0,0.0,0.0,0.0,1.0
1535039845509107290,0,1535039845508920756,kinect2_rgb_optical_frame,kinect2_ir_optical_frame,-0.0519399138017,0.00333959742795,0.00875866802314,-0.00453113942441,-0.00375492295549,0.00308026364555,0.999977940409
1535039845510903783,0,1535039845430741533,world,hand,-0.182380586863,-0.0916255563498,1.20442974567,0.00177806511056,0.0337975583971,-0.996192753315,-0.0803404822946
1535039845512718485,0,1535039845430751154,world,checkerboard,2.42782783508,0.800596058369,1.53549349308,-0.374936044216,-0.639143049717,-0.600037157536,-0.30145418644
1535039845512737347,0,1535039845430755464,world,kinect2_mocap,0.104216426611,-1.32799613476,1.3541418314,-0.0320224761963,-0.00167470052838,0.0574893690646,-0.997831046581
1535039845521389534,0,1535039845441141042,world,hand,-0.182306170464,-0.0920152291656,1.20503306389,0.00131372315809,0.0338509678841,-0.996270179749,-0.0793611779809
1535039845523294241,0,1535039845519013261,kinect2_link,kinect2_rgb_optical_frame,0.0,0.0,0.0,0.0,0.0,0.0,1.0
1535039845523584447,0,1535039845441158647,world,checkerboard,2.42782354355,0.800574660301,1.53550744057,-0.374934762716,-0.639288008213,-0.599928498268,-0.301364600658
1535039845523640018,0,1535039845441192405,world,kinect2_mocap,0.104216091335,-1.32799613476,1.35414135456,-0.0320226028562,-0.00167529669125,0.0574890114367,-0.997831046581
1535039845529488695,0,1535039845519013261,kinect2_rgb_optical_frame,kinect2_ir_optical_frame,-0.0519399138017,0.00333959742795,0.00875866802314,-0.00453113942441,-0.00375492295549,0.00308026364555,0.999977940409
1535039845530586530,0,1535039845450451092,world,hand,-0.180681809783,-0.0929267778993,1.20619010925,0.00964404828846,0.0423812530935,-0.99429756403,-0.0973814502358
1535039845532503152,0,1535039845450460900,world,checkerboard,2.42784500122,0.80059248209,1.53554797173,-0.37492197752,-0.639170229435,-0.600042879581,-0.301402717829
1535039845532514473,0,1535039845450465178,world,kinect2_mocap,0.104215696454,-1.32799613476,1.35414111614,-0.0320231877267,-0.00167623569723,0.0574882626534,-0.997831165791
1535039845533370342,0,1535039845533261638,kinect2_link,kinect2_rgb_optical_frame,0.0,0.0,0.0,0.0,0.0,0.0,1.0
1535039845533423083,0,1535039845533261638,kinect2_rgb_optical_frame,kinect2_ir_optical_frame,-0.0519399138017,0.00333959742795,0.00875866802314,-0.00453113942441,-0.00375492295549,0.00308026364555,0.999977940409
1535039845540911994,0,1535039845460772580,world,hand,-0.182269990444,-0.0928521677852,1.20665585995,0.00232296413742,0.0357262119651,-0.99626916647,-0.0785233527422
1535039845542365808,0,1535039845582323223,/kinect2_mocap,/kinect2_link,0.0801417617159,0.0689299826583,-0.011685626472,-0.704332345391,-0.0271284587477,0.0479526774544,0.707729139351
1535039845543484696,0,1535039845543336566,kinect2_link,kinect2_rgb_optical_frame,0.0,0.0,0.0,0.0,0.0,0.0,1.0
1535039845543494159,0,1535039845543336566,kinect2_rgb_optical_frame,kinect2_ir_optical_frame,-0.0519399138017,0.00333959742795,0.00875866802314,-0.00453113942441,-0.00375492295549,0.00308026364555,0.999977940409
1535039845544528453,0,1535039845460782096,world,checkerboard,2.42782068253,0.800583720207,1.53557050228,-0.374793291092,-0.639267623425,-0.600051045418,-0.301339805126
1535039845544565978,0,1535039845460786871,world,kinect2_mocap,0.104215376079,-1.32799589634,1.35414135456,-0.0320231467485,-0.00167655234691,0.0574874095619,-0.997831165791
1535039845551232961,0,1535039845470964476,world,hand,-0.181938871741,-0.0932844728231,1.20745015144,0.00353662157431,0.0355246476829,-0.99607694149,-0.0809709653258
1535039845553439462,0,1535039845470973843,world,checkerboard,2.42783761024,0.800589442253,1.53557884693,-0.374899834394,-0.639216542244,-0.600022614002,-0.301372438669
1535039845553453920,0,1535039845471027372,world,kinect2_mocap,0.10421525687,-1.32799589634,1.3541418314,-0.0320221669972,-0.00167601846624,0.0574864111841,-0.997831225395
1535039845553458305,0,1535039845471036626,world,hand,-0.181880623102,-0.0937715023756,1.20839524269,0.00412419904023,0.0366881340742,-0.996069788933,-0.0805118083954
1535039845553463187,0,1535039845471040175,world,checkerboard,2.42783117294,0.800629019737,1.53556323051,-0.374730020761,-0.639205217361,-0.600169658661,-0.301314741373
1535039845553476600,0,1535039845471043462,world,kinect2_mocap,0.104215636849,-1.32799613476,1.35414230824,-0.0320214778185,-0.00167575292289,0.0574861578643,-0.997831344604
1535039845553591835,0,1535039845553414684,kinect2_link,kinect2_rgb_optical_frame,0.0,0.0,0.0,0.0,0.0,0.0,1.0
1535039845553621363,0,1535039845553414684,kinect2_rgb_optical_frame,kinect2_ir_optical_frame,-0.0519399138017,0.00333959742795,0.00875866802314,-0.00453113942441,-0.00375492295549,0.00308026364555,0.999977940409
1535039845560455774,0,1535039845480247860,world,hand,-0.180432587862,-0.094896286726,1.21004986763,0.0127176716924,0.0476902984083,-0.994218409061,-0.0953602343798
1535039845562734982,0,1535039845480258930,world,checkerboard,2.42782664299,0.80063533783,1.5355758667,-0.374753952026,-0.639191567898,-0.600161910057,-0.301329255104
1535039845562750642,0,1535039845480263588,world,kinect2_mocap,0.104216277599,-1.32799637318,1.35414254665,-0.032020367682,-0.0016752849333,0.0574861727655,-0.997831344604
1535039845564421608,0,1535039845563514135,kinect2_link,kinect2_rgb_optical_frame,0.0,0.0,0.0,0.0,0.0,0.0,1.0
1535039845564435886,0,1535039845563514135,kinect2_rgb_optical_frame,kinect2_ir_optical_frame,-0.0519399138017,0.00333959742795,0.00875866802314,-0.00453113942441,-0.00375492295549,0.00308026364555,0.999977940409
1535039845570456674,0,1535039845490478742,world,hand,-0.181638851762,-0.0948899760842,1.2107732296,0.00486628664657,0.0398259088397,-0.996085584164,-0.078764796257
1535039845572371233,0,1535039845490489423,world,checkerboard,2.42780566216,0.80061674118,1.53556549549,-0.374837458134,-0.639258861542,-0.600041806698,-0.301321953535
1535039845572386629,0,1535039845490493958,world,kinect2_mocap,0.104217067361,-1.3279966116,1.35414302349,-0.0320200659335,-0.00167483068071,0.0574867203832,-0.997831344604
1535039845573724198,0,1535039845573605884,kinect2_link,kinect2_rgb_optical_frame,0.0,0.0,0.0,0.0,0.0,0.0,1.0
1535039845573761682,0,1535039845573605884,kinect2_rgb_optical_frame,kinect2_ir_optical_frame,-0.0519399138017,0.00333959742795,0.00875866802314,-0.00453113942441,-0.00375492295549,0.00308026364555,0.999977940409
1535039845580785826,0,1535039845500685022,world,hand,-0.181865796447,-0.0953946188092,1.21224439144,0.00525789009407,0.0424792468548,-0.996319770813,-0.0742627382278
1535039845582860605,0,1535039845500694175,world,checkerboard,2.42773604393,0.80060505867,1.53556323051,-0.374833226204,-0.639252543449,-0.600016534328,-0.301391065121
1535039845582869765,0,1535039845500698560,world,kinect2_mocap,0.10421781987,-1.3279966116,1.35414326191,-0.032018519938,-0.00167442706879,0.0574875995517,-0.997831344604
1535039845583836637,0,1535039845583679569,kinect2_link,kinect2_rgb_optical_frame,0.0,0.0,0.0,0.0,0.0,0.0,1.0
1535039845583850341,0,1535039845583679569,kinect2_rgb_optical_frame,kinect2_ir_optical_frame,-0.0519399138017,0.00333959742795,0.00875866802314,-0.00453113942441,-0.00375492295549,0.00308026364555,0.999977940409
1535039845591292726,0,1535039845510966172,world,hand,-0.181717276573,-0.0959761962295,1.21374690533,0.0044206539169,0.0435899607837,-0.996285319328,-0.0741346105933
1535039845593925365,0,1535039845510977531,world,checkerboard,2.42774009705,0.800622045994,1.53555953503,-0.374921828508,-0.639232754707,-0.59998780489,-0.30137988925
1535039845593938812,0,1535039845510982308,world,kinect2_mocap,0.10421833396,-1.3279966116,1.35414350033,-0.0320178605616,-0.00167414883617,0.057488925755,-0.997831225395
1535039845593944708,0,1535039845593752236,kinect2_link,kinect2_rgb_optical_frame,0.0,0.0,0.0,0.0,0.0,0.0,1.0
1535039845593953340,0,1535039845593752236,kinect2_rgb_optical_frame,kinect2_ir_optical_frame,-0.0519399138017,0.00333959742795,0.00875866802314,-0.00453113942441,-0.00375492295549,0.00308026364555,0.999977940409
1535039845600467129,0,1535039845520253575,world,hand,-0.181720733643,-0.0966021493077,1.21546709538,0.00395862385631,0.0452196113765,-0.996311545372,-0.0728217586875
1535039845602476523,0,1535039845520264503,world,checkerboard,2.42774820328,0.800614714622,1.5355502367,-0.374991297722,-0.639180779457,-0.599917590618,-0.301543474197
1535039845602497030,0,1535039845520268790,world,kinect2_mocap,0.10421884805,-1.3279966116,1.35414373875,-0.0320170149207,-0.00167359679472,0.0574898682535,-0.997831225395
1535039845602513830,0,1535039845520331268,world,hand,-0.181651562452,-0.0972737297416,1.21737074852,0.00329707353376,0.0461643114686,-0.996283352375,-0.07264662534
1535039845602520253,0,1535039845520337047,world,checkerboard,2.42781352997,0.800578057766,1.53553414345,-0.375097572803,-0.639059245586,-0.599940776825,-0.30162268877
1535039845602525415,0,1535039845520342586,world,kinect2_mocap,0.104219190776,-1.32799685001,1.35414397717,-0.0320170260966,-0.0016735449899,0.0574904829264,-0.997831225395
1535039845604021403,0,1535039845603865785,kinect2_link,kinect2_rgb_optical_frame,0.0,0.0,0.0,0.0,0.0,0.0,1.0
1535039845604034973,0,1535039845603865785,kinect2_rgb_optical_frame,kinect2_ir_optical_frame,-0.0519399138017,0.00333959742795,0.00875866802314,-0.00453113942441,-0.00375492295549,0.00308026364555,0.999977940409
1535039845610714667,0,1535039845530631821,world,hand,-0.181658148766,-0.0979454293847,1.2194275856,0.00239280099049,0.0470739118755,-0.996275782585,-0.072201281786
1535039845613123080,0,1535039845530649190,world,checkerboard,2.42783975601,0.800542414188,1.53553307056,-0.375023663044,-0.639182329178,-0.599928796291,-0.301477760077
1535039845613132989,0,1535039845530685120,world,kinect2_mocap,0.104219473898,-1.32799732685,1.35414397717,-0.0320175215602,-0.00167411623988,0.0574911981821,-0.997831106186
1535039845614077405,0,1535039845613950251,kinect2_link,kinect2_rgb_optical_frame,0.0,0.0,0.0,0.0,0.0,0.0,1.0
1535039845614086081,0,1535039845613950251,kinect2_rgb_optical_frame,kinect2_ir_optical_frame,-0.0519399138017,0.00333959742795,0.00875866802314,-0.00453113942441,-0.00375492295549,0.00308026364555,0.999977940409
1535039845621007956,0,1535039845540906351,world,hand,-0.181706041098,-0.098568931222,1.22176265717,0.00148384680506,0.0480474680662,-0.996247529984,-0.0719735622406
1535039845623629738,0,1535039845540938228,world,checkerboard,2.42785620689,0.800513923168,1.53552663326,-0.374997973442,-0.639180004597,-0.599937498569,-0.301497220993
1535039845623642122,0,1535039845540946079,world,kinect2_mocap,0.104219637811,-1.32799780369,1.35414373875,-0.0320173576474,-0.00167397712357,0.0574916303158,-0.997831106186
1535039845624280004,0,1535039845624033286,kinect2_link,kinect2_rgb_optical_frame,0.0,0.0,0.0,0.0,0.0,0.0,1.0
1535039845624297170,0,1535039845624033286,kinect2_rgb_optical_frame,kinect2_ir_optical_frame,-0.0519399138017,0.00333959742795,0.00875866802314,-0.00453113942441,-0.00375492295549,0.00308026364555,0.999977940409
1535039845630365968,0,1535039845550344001,world,hand,-0.181156724691,-0.0992252603173,1.22413086891,0.00110556627624,0.0474907048047,-0.995758712292,-0.0787910073996
1535039845632501487,0,1535039845550378788,world,checkerboard,2.42785596848,0.800539076328,1.53552317619,-0.374942153692,-0.63914847374,-0.600019872189,-0.30146959424
1535039845632512667,0,1535039845550386518,world,kinect2_mocap,0.104219801724,-1.32799804211,1.35414373875,-0.0320172309875,-0.00167410483118,0.0574912168086,-0.997831106186
1535039845634277139,0,1535039845634126973,kinect2_link,kinect2_rgb_optical_frame,0.0,0.0,0.0,0.0,0.0,0.0,1.0
1535039845634288797,0,1535039845634126973,kinect2_rgb_optical_frame,kinect2_ir_optical_frame,-0.0519399138017,0.00333959742795,0.00875866802314,-0.00453113942441,-0.00375492295549,0.00308026364555,0.999977940409
1535039845640763921,0,1535039845560728928,world,hand,-0.181934326887,-0.0997911915183,1.22700786591,-0.00059907924151,0.0483994409442,-0.996258914471,-0.0715914741158
1535039845643407362,0,1535039845560762144,world,checkerboard,2.42784762383,0.800543725491,1.53553342819,-0.374955296516,-0.639173209667,-0.600003361702,-0.301433652639
1535039845643431390,0,1535039845560770159,world,kinect2_mocap,0.104220084846,-1.32799804211,1.35414421558,-0.0320156179368,-0.00167324836366,0.0574915334582,-0.997831225395
1535039845644360680,0,1535039845644236318,kinect2_link,kinect2_rgb_optical_frame,0.0,0.0,0.0,0.0,0.0,0.0,1.0
1535039845644368227,0,1535039845644236318,kinect2_rgb_optical_frame,kinect2_ir_optical_frame,-0.0519399138017,0.00333959742795,0.00875866802314,-0.00453113942441,-0.00375492295549,0.00308026364555,0.999977940409
1535039845651255515,0,1535039845571007183,world,hand,-0.181493282318,-0.100552417338,1.22985613346,-0.000553039950319,0.0473484322429,-0.995778024197,-0.0786384642124
1535039845654506596,0,1535039845654316350,kinect2_link,kinect2_rgb_optical_frame,0.0,0.0,0.0,0.0,0.0,0.0,1.0
1535039845654518793,0,1535039845654316350,kinect2_rgb_optical_frame,kinect2_ir_optical_frame,-0.0519399138017,0.00333959742795,0.00875866802314,-0.00453113942441,-0.00375492295549,0.00308026364555,0.999977940409
1535039845655105199,0,1535039845571106151,world,checkerboard,2.4278447628,0.800545752048,1.53554570675,-0.374954968691,-0.639252603054,-0.599968373775,-0.30133536458
1535039845655118120,0,1535039845571118852,world,kinect2_mocap,0.104220472276,-1.32799804211,1.35414493084,-0.0320161134005,-0.00167264149059,0.0574909411371,-0.997831225395
1535039845655125825,0,1535039845571144173,world,hand,-0.181754201651,-0.101278245449,1.23304855824,-0.00138323160354,0.047390460968,-0.995798230171,-0.0783464163542
1535039845655131692,0,1535039845571151310,world,checkerboard,2.4278023243,0.800547719002,1.53557002544,-0.374976694584,-0.63919121027,-0.599966228008,-0.301442563534
1535039845655135964,0,1535039845571157073,world,kinect2_mocap,0.10422103107,-1.32799804211,1.35414588451,-0.0320158973336,-0.00167183426674,0.0574908144772,-0.997831225395
1535039845660455421,0,1535039845580381226,world,hand,-0.182142853737,-0.102002695203,1.23664271832,0.00107137428131,0.0506746135652,-0.995634436607,-0.078377738595
1535039845662522916,0,1535039845702402498,/kinect2_mocap,/kinect2_link,0.0801417617159,0.0689299826583,-0.011685626472,-0.704332345391,-0.0271284587477,0.0479526774544,0.707729139351
1535039845662788025,0,1535039845580413021,world,checkerboard,2.42779493332,0.800542593002,1.53558039665,-0.374974817038,-0.639120697975,-0.600008606911,-0.301510065794
1535039845662799951,0,1535039845580420297,world,kinect2_mocap,0.104221694171,-1.32799804211,1.35414683819,-0.0320155881345,-0.00167116010562,0.057490888983,-0.997831225395
1535039845664597657,0,1535039845664406097,kinect2_link,kinect2_rgb_optical_frame,0.0,0.0,0.0,0.0,0.0,0.0,1.0
1535039845664611931,0,1535039845664406097,kinect2_rgb_optical_frame,kinect2_ir_optical_frame,-0.0519399138017,0.00333959742795,0.00875866802314,-0.00453113942441,-0.00375492295549,0.00308026364555,0.999977940409
1535039845670832527,0,1535039845590692270,world,hand,-0.183150291443,-0.102718301117,1.24023771286,-0.00080784416059,0.0497290976346,-0.996216237545,-0.0712723210454
1535039845672764963,0,1535039845590731055,world,checkerboard,2.42776608467,0.800511419773,1.53558492661,-0.375052690506,-0.639160513878,-0.599926769733,-0.301491737366
1535039845672774527,0,1535039845590752614,world,kinect2_mocap,0.104222208261,-1.32799851894,1.35414755344,-0.0320152975619,-0.00167047721334,0.057490516454,-0.997831225395
1535039845674659599,0,1535039845674533699,kinect2_link,kinect2_rgb_optical_frame,0.0,0.0,0.0,0.0,0.0,0.0,1.0
1535039845674685747,0,1535039845674533699,kinect2_rgb_optical_frame,kinect2_ir_optical_frame,-0.0519399138017,0.00333959742795,0.00875866802314,-0.00453113942441,-0.00375492295549,0.00308026364555,0.999977940409
1535039845681090604,0,1535039845601031623,world,hand,-0.182838097215,-0.103593401611,1.24386012554,-0.000414397800341,0.0490138158202,-0.995801329613,-0.0773131921887
1535039845683548663,0,1535039845601069056,world,checkerboard,2.42777132988,0.800515532494,1.53559267521,-0.374894499779,-0.639119625092,-0.60010188818,-0.301426649094
1535039845683564904,0,1535039845601080192,world,kinect2_mocap,0.104222588241,-1.32799899578,1.35414803028,-0.0320142507553,-0.00167025858536,0.0574902407825,-0.997831344604
1535039845689475063,0,1535039845684616467,kinect2_link,kinect2_rgb_optical_frame,0.0,0.0,0.0,0.0,0.0,0.0,1.0
1535039845689487636,0,1535039845684616467,kinect2_rgb_optical_frame,kinect2_ir_optical_frame,-0.0519399138017,0.00333959742795,0.00875866802314,-0.00453113942441,-0.00375492295549,0.00308026364555,0.999977940409
1535039845690404626,0,1535039845610301257,world,hand,-0.183848366141,-0.104406483471,1.24801564217,0.000530458753929,0.0514032356441,-0.996246755123,-0.0696413964033
1535039845692504066,0,1535039845610311255,world,checkerboard,2.42776012421,0.800509214401,1.53557491302,-0.374880552292,-0.639149487019,-0.600080668926,-0.301422804594
1535039845692516501,0,1535039845610315639,world,kinect2_mocap,0.104222871363,-1.32799947262,1.3541482687,-0.0320145338774,-0.00167031190358,0.0574903190136,-0.997831225395
1535039845695468183,0,1535039845695307594,kinect2_link,kinect2_rgb_optical_frame,0.0,0.0,0.0,0.0,0.0,0.0,1.0
1535039845695498137,0,1535039845695307594,kinect2_rgb_optical_frame,kinect2_ir_optical_frame,-0.0519399138017,0.00333959742795,0.00875866802314,-0.00453113942441,-0.00375492295549,0.00308026364555,0.999977940409
1535039845700541802,0,1535039845620560444,world,hand,-0.183542773128,-0.105378255248,1.25203955173,0.00151460187044,0.0513630472124,-0.995744645596,-0.0764994099736
1535039845703051842,0,1535039845620590424,world,checkerboard,2.42777967453,0.800533533096,1.53558337688,-0.374881982803,-0.639157772064,-0.600073039532,-0.301418662071
1535039845703060541,0,1535039845620596362,world,kinect2_mocap,0.104222901165,-1.32799959183,1.3541482687,-0.0320150256157,-0.00167057651561,0.0574902370572,-0.997831225395
1535039845703064001,0,1535039845620603089,world,hand,-0.184541046619,-0.106294743717,1.25649261475,0.00119708047714,0.0531861074269,-0.996219217777,-0.0686812251806
1535039845703072744,0,1535039845620606432,world,checkerboard,2.42777204514,0.80054295063,1.53556990623,-0.374862551689,-0.639179170132,-0.600088119507,-0.301367580891
1535039845703087643,0,1535039845620611028,world,kinect2_mocap,0.104222916067,-1.32799971104,1.3541482687,-0.0320159196854,-0.00167073286138,0.05749040097,-0.997831225395
1535039845705685044,0,1535039845705451234,kinect2_link,kinect2_rgb_optical_frame,0.0,0.0,0.0,0.0,0.0,0.0,1.0
1535039845705702372,0,1535039845705451234,kinect2_rgb_optical_frame,kinect2_ir_optical_frame,-0.0519399138017,0.00333959742795,0.00875866802314,-0.00453113942441,-0.00375492295549,0.00308026364555,0.999977940409
1535039845711271454,0,1535039845630959822,world,hand,-0.184830740094,-0.107242532074,1.26108503342,0.00018490650109,0.0537877567112,-0.996273636818,-0.0674223452806
1535039845713723605,0,1535039845630980153,world,checkerboard,2.42777609825,0.800554633141,1.53554189205,-0.374945342541,-0.63927680254,-0.599941968918,-0.301348268986
1535039845713739358,0,1535039845630988313,world,kinect2_mocap,0.104222767055,-1.32799983025,1.35414803028,-0.0320155955851,-0.00167035800405,0.0574913620949,-0.997831225395
1535039845720418485,0,1535039845640245642,world,hand,-0.185079932213,-0.108095116913,1.26569235325,-0.000119461888971,0.0536151006818,-0.996279597282,-0.067471832037
1535039845720433154,0,1535039845715591770,kinect2_link,kinect2_rgb_optical_frame,0.0,0.0,0.0,0.0,0.0,0.0,1.0
1535039845722648184,0,1535039845640281960,world,checkerboard,2.42778420448,0.800592601299,1.53553175926,-0.374892085791,-0.639250397682,-0.599994838238,-0.301365345716
1535039845722669916,0,1535039845640290909,world,kinect2_mocap,0.104222640395,-1.32799971104,1.35414779186,-0.0320149101317,-0.0016703249421,0.0574918985367,-0.997831225395
1535039845725199115,0,1535039845715591770,kinect2_rgb_optical_frame,kinect2_ir_optical_frame,-0.0519399138017,0.00333959742795,0.00875866802314,-0.00453113942441,-0.00375492295549,0.00308026364555,0.999977940409
1535039845730562193,0,1535039845730388823,kinect2_link,kinect2_rgb_optical_frame,0.0,0.0,0.0,0.0,0.0,0.0,1.0
1535039845730628541,0,1535039845730388823,kinect2_rgb_optical_frame,kinect2_ir_optical_frame,-0.0519399138017,0.00333959742795,0.00875866802314,-0.00453113942441,-0.00375492295549,0.00308026364555,0.999977940409
1535039845732263737,0,1535039845650556604,world,hand,-0.18536503613,-0.108960449696,1.27063250542,-0.0010741361184,0.0529759861529,-0.996413111687,-0.0659806281328
1535039845734339702,0,1535039845650589677,world,checkerboard,2.42779231071,0.800548970699,1.5355335474,-0.374889731407,-0.639141380787,-0.600081980228,-0.301426023245
1535039845734345600,0,1535039845650598216,world,kinect2_mocap,0.104222394526,-1.32799959183,1.35414755344,-0.0320153422654,-0.00167051132303,0.0574919655919,-0.997831106186
1535039845740609905,0,1535039845740480116,kinect2_link,kinect2_rgb_optical_frame,0.0,0.0,0.0,0.0,0.0,0.0,1.0
1535039845740623119,0,1535039845740480116,kinect2_rgb_optical_frame,kinect2_ir_optical_frame,-0.0519399138017,0.00333959742795,0.00875866802314,-0.00453113942441,-0.00375492295549,0.00308026364555,0.999977940409
1535039845740819746,0,1535039845660804089,world,hand,-0.184917986393,-0.109815850854,1.27556931973,-0.00162740249652,0.050412915647,-0.996081292629,-0.0726505368948
1535039845743167761,0,1535039845660836776,world,checkerboard,2.42777323723,0.800573527813,1.5355451107,-0.374913841486,-0.639227390289,-0.600014150143,-0.301348865032
1535039845743178651,0,1535039845660843714,world,kinect2_mocap,0.104222163558,-1.32799947262,1.35414755344,-0.0320146977901,-0.00167030247394,0.0574920997024,-0.997831225395
1535039845750151359,0,1535039845670025626,world,hand,-0.185771256685,-0.11058549583,1.28096854687,-0.00355730974115,0.0495777241886,-0.996651172638,-0.0649306774139
1535039845752210466,0,1535039845750563940,kinect2_link,kinect2_rgb_optical_frame,0.0,0.0,0.0,0.0,0.0,0.0,1.0
1535039845752317605,0,1535039845670038465,world,checkerboard,2.42778015137,0.800591051579,1.53555965424,-0.374894589186,-0.639205098152,-0.600070118904,-0.301308631897
1535039845752330975,0,1535039845670045347,world,kinect2_mocap,0.104222051799,-1.32799935341,1.35414779186,-0.0320144891739,-0.00167007511482,0.0574922971427,-0.997831106186
1535039845752337523,0,1535039845670055634,world,hand,-0.186030060053,-0.111400961876,1.28640878201,-0.00513197714463,0.0469761230052,-0.996797502041,-0.0645122528076
1535039845752348592,0,1535039845670061459,world,checkerboard,2.42776060104,0.800583481789,1.53559494019,-0.374844759703,-0.639119386673,-0.600142478943,-0.301408141851
1535039845752354493,0,1535039845670099373,world,kinect2_mocap,0.104222282767,-1.3279992342,1.35414803028,-0.032013528049,-0.00167000654619,0.0574926920235,-0.997831225395
1535039845757619131,0,1535039845750563940,kinect2_rgb_optical_frame,kinect2_ir_optical_frame,-0.0519399138017,0.00333959742795,0.00875866802314,-0.00453113942441,-0.00375492295549,0.00308026364555,0.999977940409
1535039845760439189,0,1535039845680404344,world,hand,-0.18625973165,-0.112226486206,1.29203188419,-0.00589068094268,0.0448064692318,-0.996876120567,-0.0647740885615
1535039845762423862,0,1535039845762120417,kinect2_link,kinect2_rgb_optical_frame,0.0,0.0,0.0,0.0,0.0,0.0,1.0
1535039845762436143,0,1535039845762120417,kinect2_rgb_optical_frame,kinect2_ir_optical_frame,-0.0519399138017,0.00333959742795,0.00875866802314,-0.00453113942441,-0.00375492295549,0.00308026364555,0.999977940409
1535039845762804194,0,1535039845680417843,world,checkerboard,2.42776632309,0.800569057465,1.53559601307,-0.374934762716,-0.639101982117,-0.600092470646,-0.301432788372
1535039845762814401,0,1535039845680422642,world,kinect2_mocap,0.104222424328,-1.32799911499,1.35414850712,-0.0320132561028,-0.00167007418349,0.0574928708375,-0.997831225395
1535039845770778995,0,1535039845690693727,world,hand,-0.186543047428,-0.113011017442,1.29776716232,-0.00771483266726,0.0418262630701,-0.997064948082,-0.0636594071984
1535039845772444606,0,1535039845772214250,kinect2_link,kinect2_rgb_optical_frame,0.0,0.0,0.0,0.0,0.0,0.0,1.0
1535039845772454860,0,1535039845772214250,kinect2_rgb_optical_frame,kinect2_ir_optical_frame,-0.0519399138017,0.00333959742795,0.00875866802314,-0.00453113942441,-0.00375492295549,0.00308026364555,0.999977940409
1535039845772634562,0,1535039845690724990,world,checkerboard,2.42777013779,0.800572693348,1.53560888767,-0.374948054552,-0.639085769653,-0.600103437901,-0.301428616047
1535039845772645627,0,1535039845690731450,world,kinect2_mocap,0.104222610593,-1.32799875736,1.35414874554,-0.0320133045316,-0.00167036440689,0.0574926175177,-0.997831225395
1535039845781161256,0,1535039845701040799,world,hand,-0.18682461977,-0.113857999444,1.30366182327,-0.00851764902472,0.0393914319575,-0.997187614441,-0.0631877928972
1535039845782544695,0,1535039845822491389,/kinect2_mocap,/kinect2_link,0.0801417617159,0.0689299826583,-0.011685626472,-0.704332345391,-0.0271284587477,0.0479526774544,0.707729139351
1535039845783623837,0,1535039845701080484,world,checkerboard,2.42777824402,0.800571978092,1.53560495377,-0.374851584435,-0.639115214348,-0.600121676922,-0.301449924707
1535039845783638864,0,1535039845701091806,world,kinect2_mocap,0.104222632945,-1.32799863815,1.35414874554,-0.0320135988295,-0.00167087290902,0.057492300868,-0.997831225395
1535039845787204081,0,1535039845782333464,kinect2_link,kinect2_rgb_optical_frame,0.0,0.0,0.0,0.0,0.0,0.0,1.0
1535039845790425267,0,1535039845782333464,kinect2_rgb_optical_frame,kinect2_ir_optical_frame,-0.0519399138017,0.00333959742795,0.00875866802314,-0.00453113942441,-0.00375492295549,0.00308026364555,0.999977940409
1535039845790496505,0,1535039845710420733,world,hand,-0.187166705728,-0.114693596959,1.30967199802,-0.00915298331529,0.036987401545,-0.997341156006,-0.0621196143329
1535039845792786507,0,1535039845710429756,world,checkerboard,2.42778801918,0.800571024418,1.53559374809,-0.374882757664,-0.639208137989,-0.600044190884,-0.301368355751
1535039845792806998,0,1535039845710436397,world,kinect2_mocap,0.104222655296,-1.32799828053,1.35414850712,-0.0320138595998,-0.00167154951487,0.0574918426573,-0.997831225395
1535039845797309809,0,1535039845797151197,kinect2_link,kinect2_rgb_optical_frame,0.0,0.0,0.0,0.0,0.0,0.0,1.0
1535039845797322020,0,1535039845797151197,kinect2_rgb_optical_frame,kinect2_ir_optical_frame,-0.0519399138017,0.00333959742795,0.00875866802314,-0.00453113942441,-0.00375492295549,0.00308026364555,0.999977940409
1535039845800857023,0,1535039845720700288,world,hand,-0.187487140298,-0.115497894585,1.31576168537,-0.0105415266007,0.0340176820755,-0.997502565384,-0.0609950721264
1535039845803133814,0,1535039845720709575,world,checkerboard,2.42777991295,0.800557971001,1.53556644917,-0.374978274107,-0.63924652338,-0.599951028824,-0.301353424788
1535039845803142755,0,1535039845720713713,world,kinect2_mocap,0.104222588241,-1.32799804211,1.3541482687,-0.0320141762495,-0.00167194381356,0.0574915371835,-0.997831225395
1535039845803165014,0,1535039845720719700,world,hand,-0.187832310796,-0.116323232651,1.32202398777,-0.0120323598385,0.0315588377416,-0.997628629208,-0.0599698983133
1535039845803176111,0,1535039845720723156,world,checkerboard,2.42779588699,0.800563514233,1.53554821014,-0.374895334244,-0.639225363731,-0.60002464056,-0.301354974508
1535039845803180668,0,1535039845720726482,world,kinect2_mocap,0.104222625494,-1.32799780369,1.35414779186,-0.0320153608918,-0.00167271622922,0.0574908927083,-0.997831225395
1535039845807382384,0,1535039845807240406,kinect2_link,kinect2_rgb_optical_frame,0.0,0.0,0.0,0.0,0.0,0.0,1.0
1535039845807391104,0,1535039845807240406,kinect2_rgb_optical_frame,kinect2_ir_optical_frame,-0.0519399138017,0.00333959742795,0.00875866802314,-0.00453113942441,-0.00375492295549,0.00308026364555,0.999977940409
1535039845810157269,0,1535039845730051284,world,hand,-0.188200011849,-0.117188721895,1.32837355137,-0.0110483821481,0.0295024290681,-0.997737109661,-0.0593988671899
1535039845812552762,0,1535039845730062395,world,checkerboard,2.42778372765,0.800563037395,1.53554105759,-0.374928951263,-0.639257073402,-0.599972844124,-0.301349073648
1535039845812578259,0,1535039845730066404,world,kinect2_mocap,0.104222588241,-1.32799756527,1.35414731503,-0.0320160798728,-0.00167323858477,0.0574901513755,-0.997831225395
1535039845818725119,0,1535039845817341851,kinect2_link,kinect2_rgb_optical_frame,0.0,0.0,0.0,0.0,0.0,0.0,1.0
1535039845818745756,0,1535039845817341851,kinect2_rgb_optical_frame,kinect2_ir_optical_frame,-0.0519399138017,0.00333959742795,0.00875866802314,-0.00453113942441,-0.00375492295549,0.00308026364555,0.999977940409
1535039845820646534,0,1535039845740433217,world,hand,-0.188524112105,-0.118047744036,1.3347016573,-0.0102860210463,0.0277913883328,-0.997881054878,-0.0579243078828
1535039845822649085,0,1535039845740504791,world,checkerboard,2.42778086662,0.800559341908,1.53553187847,-0.374917477369,-0.639201641083,-0.600028514862,-0.301370292902
1535039845822665183,0,1535039845740529023,world,kinect2_mocap,0.104222603142,-1.32799732685,1.35414683819,-0.0320160537958,-0.00167389935814,0.057489566505,-0.997831225395
1535039845827692805,0,1535039845827450942,kinect2_link,kinect2_rgb_optical_frame,0.0,0.0,0.0,0.0,0.0,0.0,1.0
1535039845827736346,0,1535039845827450942,kinect2_rgb_optical_frame,kinect2_ir_optical_frame,-0.0519399138017,0.00333959742795,0.00875866802314,-0.00453113942441,-0.00375492295549,0.00308026364555,0.999977940409
1535039845830730645,0,1535039845750717160,world,hand,-0.188163742423,-0.118933022022,1.34114420414,-0.0079679088667,0.0251047518104,-0.997549414635,-0.0648187249899
1535039845833108109,0,1535039845750726591,world,checkerboard,2.42775917053,0.800578892231,1.53554618359,-0.374877899885,-0.639148652554,-0.600103318691,-0.301382929087
1535039845833121549,0,1535039845750748174,world,kinect2_mocap,0.104222647846,-1.32799685001,1.35414636135,-0.0320161320269,-0.00167426804546,0.0574892088771,-0.997831225395
1535039845837651982,0,1535039845837555844,kinect2_link,kinect2_rgb_optical_frame,0.0,0.0,0.0,0.0,0.0,0.0,1.0
1535039845837660365,0,1535039845837555844,kinect2_rgb_optical_frame,kinect2_ir_optical_frame,-0.0519399138017,0.00333959742795,0.00875866802314,-0.00453113942441,-0.00375492295549,0.00308026364555,0.999977940409
1535039845841442058,0,1535039845761063178,world,hand,-0.188290983438,-0.119770616293,1.34837937355,0.000568253046367,0.0338651761413,-0.997254669666,-0.0658498853445
1535039845843671809,0,1535039845761081989,world,checkerboard,2.42777657509,0.800564527512,1.53554916382,-0.374903708696,-0.639162898064,-0.600086331367,-0.301354438066
1535039845843681529,0,1535039845761090300,world,kinect2_mocap,0.104222722352,-1.32799685001,1.35414588451,-0.0320157296956,-0.00167434778996,0.0574889779091,-0.997831344604
1535039845843690178,0,1535039845761101614,world,hand,-0.189510971308,-0.120552748442,1.35456967354,-0.00710991118103,0.0222360417247,-0.998197436333,-0.0552897043526
1535039845843695470,0,1535039845761107050,world,checkerboard,2.42779827118,0.800563275814,1.53554999828,-0.374868929386,-0.639146625996,-0.60012203455,-0.301361173391
1535039845843701265,0,1535039845761111857,world,kinect2_mocap,0.104222841561,-1.32799685001,1.3541456461,-0.032015375793,-0.00167445035186,0.0574888959527,-0.997831344604
1535039845847769224,0,1535039845847629301,kinect2_link,kinect2_rgb_optical_frame,0.0,0.0,0.0,0.0,0.0,0.0,1.0
1535039845847781719,0,1535039845847629301,kinect2_rgb_optical_frame,kinect2_ir_optical_frame,-0.0519399138017,0.00333959742795,0.00875866802314,-0.00453113942441,-0.00375492295549,0.00308026364555,0.999977940409
1535039845850455238,0,1535039845770371341,world,hand,-0.189700081944,-0.121387496591,1.36130976677,-0.00700015714392,0.0200131330639,-0.998288094997,-0.0545101352036
1535039845852786863,0,1535039845770381073,world,checkerboard,2.42779707909,0.800544679165,1.53556382656,-0.374785393476,-0.639115571976,-0.600206553936,-0.301362603903
1535039845852800997,0,1535039845770385379,world,kinect2_mocap,0.104222975671,-1.32799708843,1.3541456461,-0.0320151150227,-0.00167466467246,0.0574890971184,-0.997831344604
1535039845860747251,0,1535039845780620829,world,hand,-0.189855724573,-0.12220710516,1.36816573143,-0.00744726369157,0.0168561395258,-0.998387217522,-0.0536975674331
1535039845862061043,0,1535039845857761485,kinect2_link,kinect2_rgb_optical_frame,0.0,0.0,0.0,0.0,0.0,0.0,1.0
1535039845862109251,0,1535039845857761485,kinect2_rgb_optical_frame,kinect2_ir_optical_frame,-0.0519399138017,0.00333959742795,0.00875866802314,-0.00453113942441,-0.00375492295549,0.00308026364555,0.999977940409
1535039845862828452,0,1535039845780630539,world,checkerboard,2.4277780056,0.800563871861,1.53558969498,-0.374780535698,-0.63921892643,-0.600138187408,-0.301285356283
1535039845862841450,0,1535039845780634729,world,kinect2_mocap,0.104223027825,-1.32799732685,1.3541456461,-0.0320169739425,-0.00167506886646,0.0574891790748,-0.997831225395
1535039845868011221,0,1535039845867867658,kinect2_link,kinect2_rgb_optical_frame,0.0,0.0,0.0,0.0,0.0,0.0,1.0
1535039845868023106,0,1535039845867867658,kinect2_rgb_optical_frame,kinect2_ir_optical_frame,-0.0519399138017,0.00333959742795,0.00875866802314,-0.00453113942441,-0.00375492295549,0.00308026364555,0.999977940409
1535039845871228085,0,1535039845790860448,world,hand,-0.18992896378,-0.122965335846,1.3749576807,-0.00865151174366,0.0140448939055,-0.998475492001,-0.0526748895645
1535039845873422423,0,1535039845790892857,world,checkerboard,2.42778635025,0.800571024418,1.53561508656,-0.374826699495,-0.639153242111,-0.600127100945,-0.3013895154
1535039845873432192,0,1535039845791017572,world,kinect2_mocap,0.104223012924,-1.32799780369,1.35414588451,-0.0320172309875,-0.00167489727028,0.0574898719788,-0.997831225395
1535039845878163452,0,1535039845877956851,kinect2_link,kinect2_rgb_optical_frame,0.0,0.0,0.0,0.0,0.0,0.0,1.0
1535039845878179351,0,1535039845877956851,kinect2_rgb_optical_frame,kinect2_ir_optical_frame,-0.0519399138017,0.00333959742795,0.00875866802314,-0.00453113942441,-0.00375492295549,0.00308026364555,0.999977940409
1535039845880375307,0,1535039845800265620,world,hand,-0.18984913826,-0.123713947833,1.38206934929,-0.0122152809054,0.00936819519848,-0.998516261578,-0.0522350668907
1535039845882812840,0,1535039845800297666,world,checkerboard,2.4277613163,0.80056655407,1.53560996056,-0.374878883362,-0.639172911644,-0.600087165833,-0.301362276077
1535039845882827513,0,1535039845800306967,world,kinect2_mocap,0.104222655296,-1.32799816132,1.35414612293,-0.0320179089904,-0.00167464010883,0.0574903041124,-0.997831106186
1535039845889240552,0,1535039845889014330,kinect2_link,kinect2_rgb_optical_frame,0.0,0.0,0.0,0.0,0.0,0.0,1.0
1535039845889255202,0,1535039845889014330,kinect2_rgb_optical_frame,kinect2_ir_optical_frame,-0.0519399138017,0.00333959742795,0.00875866802314,-0.00453113942441,-0.00375492295549,0.00308026364555,0.999977940409
1535039845890815098,0,1535039845810506376,world,hand,-0.189801827073,-0.124409988523,1.38882029057,-0.0128990858793,0.00736386375502,-0.998575389385,-0.0512514635921
1535039845893090991,0,1535039845810519058,world,checkerboard,2.42775273323,0.800543129444,1.53560996056,-0.374863147736,-0.639159321785,-0.600086390972,-0.301412254572
1535039845893116420,0,1535039845810525142,world,kinect2_mocap,0.104222297668,-1.32799875736,1.35414612293,-0.0320181846619,-0.00167472870089,0.0574905499816,-0.997831106186
1535039845899316727,0,1535039845899152810,kinect2_link,kinect2_rgb_optical_frame,0.0,0.0,0.0,0.0,0.0,0.0,1.0
1535039845899329948,0,1535039845899152810,kinect2_rgb_optical_frame,kinect2_ir_optical_frame,-0.0519399138017,0.00333959742795,0.00875866802314,-0.00453113942441,-0.00375492295549,0.00308026364555,0.999977940409
1535039845901487426,0,1535039845820766369,world,hand,-0.189846843481,-0.125182464719,1.39603877068,-0.0155599256977,0.00346065755002,-0.998613834381,-0.0501630753279
1535039845902734705,0,1535039845942578280,/kinect2_mocap,/kinect2_link,0.0801417617159,0.0689299826583,-0.011685626472,-0.704332345391,-0.0271284587477,0.0479526774544,0.707729139351
1535039845903465472,0,1535039845820781019,world,checkerboard,2.42775440216,0.800557434559,1.53558290005,-0.374945372343,-0.639217317104,-0.599970221519,-0.301418364048
1535039845903476522,0,1535039845820788004,world,kinect2_mocap,0.104221880436,-1.32799935341,1.35414612293,-0.0320203565061,-0.00167481275275,0.0574904233217,-0.997831106186
1535039845903502283,0,1535039845820799139,world,hand,-0.189564555883,-0.125836104155,1.40286624432,-0.0141956144944,0.000316644232953,-0.99870544672,-0.048844397068
1535039845903508280,0,1535039845820804164,world,checkerboard,2.42776250839,0.800551712513,1.53556191921,-0.374960154295,-0.639170408249,-0.599999248981,-0.30144149065
1535039845903512181,0,1535039845820840710,world,kinect2_mocap,0.104221493006,-1.32799971104,1.35414588451,-0.0320214442909,-0.00167458446231,0.0574902668595,-0.997831106186
1535039845909369065,0,1535039845909232085,kinect2_link,kinect2_rgb_optical_frame,0.0,0.0,0.0,0.0,0.0,0.0,1.0
1535039845909381488,0,1535039845909232085,kinect2_rgb_optical_frame,kinect2_ir_optical_frame,-0.0519399138017,0.00333959742795,0.00875866802314,-0.00453113942441,-0.00375492295549,0.00308026364555,0.999977940409
1535039845910111753,0,1535039845830028419,world,hand,-0.189588308334,-0.126495361328,1.41028237343,-0.0182775184512,-0.00436407700181,-0.998665750027,-0.0481007248163
1535039845912332463,0,1535039845830044782,world,checkerboard,2.42775702477,0.800543606281,1.53554689884,-0.374916642904,-0.639199256897,-0.600007414818,-0.30141851306
1535039845912344399,0,1535039845830051791,world,kinect2_mocap,0.104221366346,-1.32800006866,1.3541456461,-0.032022241503,-0.001674611005,0.0574904307723,-0.997830986977
1535039845920668242,0,1535039845840347054,world,hand,-0.189536094666,-0.127096608281,1.4173835516,-0.0179022736847,-0.00773711130023,-0.998703896999,-0.0470135174692
1535039845923235361,0,1535039845840357171,world,checkerboard,2.42776536942,0.80055385828,1.53555583954,-0.374902307987,-0.63918441534,-0.600055813789,-0.301371186972
1535039845923246942,0,1535039845840361260,world,kinect2_mocap,0.104221254587,-1.32800018787,1.35414540768,-0.0320228971541,-0.00167461519595,0.0574898906052,-0.997830986977
1535039845924078266,0,1535039845919318040,kinect2_link,kinect2_rgb_optical_frame,0.0,0.0,0.0,0.0,0.0,0.0,1.0
1535039845924090429,0,1535039845919318040,kinect2_rgb_optical_frame,kinect2_ir_optical_frame,-0.0519399138017,0.00333959742795,0.00875866802314,-0.00453113942441,-0.00375492295549,0.00308026364555,0.999977940409
1535039845929609200,0,1535039845929421585,kinect2_link,kinect2_rgb_optical_frame,0.0,0.0,0.0,0.0,0.0,0.0,1.0
1535039845929621916,0,1535039845929421585,kinect2_rgb_optical_frame,kinect2_ir_optical_frame,-0.0519399138017,0.00333959742795,0.00875866802314,-0.00453113942441,-0.00375492295549,0.00308026364555,0.999977940409
1535039845930728597,0,1535039845850680154,world,hand,-0.189502477646,-0.127724155784,1.42454719543,-0.0181337445974,-0.0106457369402,-0.998718559742,-0.0460349284112
1535039845933319641,0,1535039845850689616,world,checkerboard,2.42776298523,0.800542891026,1.53555035591,-0.374936491251,-0.639187037945,-0.599991858006,-0.301450282335
1535039845933328406,0,1535039845850693731,world,kinect2_mocap,0.10422129184,-1.32800030708,1.35414516926,-0.0320231802762,-0.00167457258794,0.0574897453189,-0.997830986977
1535039845939699362,0,1535039845939510792,kinect2_link,kinect2_rgb_optical_frame,0.0,0.0,0.0,0.0,0.0,0.0,1.0
1535039845939755080,0,1535039845939510792,kinect2_rgb_optical_frame,kinect2_ir_optical_frame,-0.0519399138017,0.00333959742795,0.00875866802314,-0.00453113942441,-0.00375492295549,0.00308026364555,0.999977940409
1535039845941036910,0,1535039845860926611,world,hand,-0.189384937286,-0.128334596753,1.43174493313,-0.0187894757837,-0.0139234503731,-0.998735308647,-0.0445086844265
1535039845943351149,0,1535039845860942341,world,checkerboard,2.42775511742,0.800538241863,1.53555297852,-0.374904632568,-0.639189302921,-0.600050330162,-0.301368832588
1535039845943364944,0,1535039845860948569,world,kinect2_mocap,0.104221269488,-1.32800018787,1.35414516926,-0.0320226736367,-0.00167458492797,0.0574902705848,-0.997830986977
1535039845950262445,0,1535039845870220390,world,hand,-0.18893635273,-0.128756687045,1.43853533268,-0.0189482774585,-0.0167898833752,-0.998789310455,-0.0421776138246
1535039845952735768,0,1535039845870230314,world,checkerboard,2.42776179314,0.800546169281,1.53555953503,-0.374896407127,-0.639193296432,-0.600039541721,-0.3013920784
1535039845952751244,0,1535039845870234431,world,kinect2_mocap,0.104221336544,-1.32800006866,1.35414516926,-0.0320226326585,-0.00167449191213,0.0574905052781,-0.997830986977
1535039845952757538,0,1535039845870240451,world,hand,-0.189104706049,-0.129530489445,1.44594919682,-0.0172179657966,-0.020567972213,-0.998740673065,-0.0423990488052
1535039845952763389,0,1535039845870243924,world,checkerboard,2.42773747444,0.80053550005,1.53556382656,-0.374889284372,-0.639199316502,-0.600030303001,-0.301406681538
1535039845952777541,0,1535039845870247299,world,kinect2_mocap,0.104221493006,-1.32799994946,1.35414516926,-0.0320212393999,-0.00167436513584,0.0574903525412,-0.997831106186
1535039845954904456,0,1535039845949595738,kinect2_link,kinect2_rgb_optical_frame,0.0,0.0,0.0,0.0,0.0,0.0,1.0
1535039845954912352,0,1535039845949595738,kinect2_rgb_optical_frame,kinect2_ir_optical_frame,-0.0519399138017,0.00333959742795,0.00875866802314,-0.00453113942441,-0.00375492295549,0.00308026364555,0.999977940409
1535039845960756408,0,1535039845880627528,world,hand,-0.188896000385,-0.130139693618,1.45282649994,-0.0166686754674,-0.0226040259004,-0.998771846294,-0.0408192910254
1535039845961517779,0,1535039845961419265,kinect2_link,kinect2_rgb_optical_frame,0.0,0.0,0.0,0.0,0.0,0.0,1.0
1535039845961554045,0,1535039845961419265,kinect2_rgb_optical_frame,kinect2_ir_optical_frame,-0.0519399138017,0.00333959742795,0.00875866802314,-0.00453113942441,-0.00375492295549,0.00308026364555,0.999977940409
1535039845962646247,0,1535039845880637389,world,checkerboard,2.42777872086,0.800543367863,1.53555762768,-0.375038892031,-0.639169275761,-0.599950194359,-0.301443576813
1535039845962654808,0,1535039845880641450,world,kinect2_mocap,0.104221761227,-1.32799983025,1.35414516926,-0.0320209488273,-0.00167401053477,0.0574901886284,-0.997831106186
1535039845971007818,0,1535039845890908026,world,hand,-0.188781023026,-0.130825400352,1.46016287804,-0.018237516284,-0.0260846279562,-0.99868786335,-0.0401216559112
1535039845971767650,0,1535039845971496703,kinect2_link,kinect2_rgb_optical_frame,0.0,0.0,0.0,0.0,0.0,0.0,1.0
1535039845971776599,0,1535039845971496703,kinect2_rgb_optical_frame,kinect2_ir_optical_frame,-0.0519399138017,0.00333959742795,0.00875866802314,-0.00453113942441,-0.00375492295549,0.00308026364555,0.999977940409
1535039845975625043,0,1535039845890942310,world,checkerboard,2.42777776718,0.800550162792,1.53557109833,-0.37492904067,-0.639126598835,-0.600070774555,-0.301430791616
1535039845975642868,0,1535039845890951975,world,kinect2_mocap,0.104221880436,-1.32799971104,1.35414516926,-0.0320200063288,-0.00167370901909,0.0574906766415,-0.997831106186
1535039845980210704,0,1535039845900159769,world,hand,-0.188075348735,-0.131139010191,1.46672940254,-0.0181675218046,-0.0300989616662,-0.998623669147,-0.0389205254614
1535039845982458681,0,1535039845900170949,world,checkerboard,2.42778468132,0.800556480885,1.53557407856,-0.374935656786,-0.639149665833,-0.600063920021,-0.301387131214
1535039845982473335,0,1535039845900194433,world,kinect2_mocap,0.104221940041,-1.32799959183,1.35414516926,-0.032019328326,-0.00167367386166,0.0574910230935,-0.997831106186
1535039845983446298,0,1535039845981714161,kinect2_link,kinect2_rgb_optical_frame,0.0,0.0,0.0,0.0,0.0,0.0,1.0
1535039845983461546,0,1535039845981714161,kinect2_rgb_optical_frame,kinect2_ir_optical_frame,-0.0519399138017,0.00333959742795,0.00875866802314,-0.00453113942441,-0.00375492295549,0.00308026364555,0.999977940409
1535039845990402955,0,1535039845910408247,world,hand,-0.188308298588,-0.13211774826,1.47423112392,-0.0204222146422,-0.0329268611968,-0.998512864113,-0.0383529029787
1535039845991992762,0,1535039845991829615,kinect2_link,kinect2_rgb_optical_frame,0.0,0.0,0.0,0.0,0.0,0.0,1.0
1535039845992006736,0,1535039845991829615,kinect2_rgb_optical_frame,kinect2_ir_optical_frame,-0.0519399138017,0.00333959742795,0.00875866802314,-0.00453113942441,-0.00375492295549,0.00308026364555,0.999977940409
1535039845992788830,0,1535039845910416768,world,checkerboard,2.42777371407,0.800582945347,1.53558254242,-0.374814987183,-0.639172136784,-0.600121080875,-0.301376014948
1535039845992796534,0,1535039845910420964,world,kinect2_mocap,0.104222074151,-1.32799947262,1.35414516926,-0.0320206061006,-0.00167384161614,0.05749097839,-0.997830986977
1535039846000668447,0,1535039845920653434,world,hand,-0.187997281551,-0.132792830467,1.48097193241,-0.0213101059198,-0.0353949368,-0.998432695866,-0.0377518944442
1535039846002106798,0,1535039846001885419,kinect2_link,kinect2_rgb_optical_frame,0.0,0.0,0.0,0.0,0.0,0.0,1.0
1535039846002116086,0,1535039846001885419,kinect2_rgb_optical_frame,kinect2_ir_optical_frame,-0.0519399138017,0.00333959742795,0.00875866802314,-0.00453113942441,-0.00375492295549,0.00308026364555,0.999977940409
1535039846002854644,0,1535039845920695346,world,checkerboard,2.42778205872,0.800570547581,1.53557062149,-0.374946624041,-0.639225304127,-0.599991619587,-0.301357150078
1535039846002865705,0,1535039845920707886,world,kinect2_mocap,0.104221969843,-1.32799935341,1.35414516926,-0.0320216752589,-0.00167430366855,0.0574908256531,-0.997830986977
1535039846002869649,0,1535039845920720134,world,hand,-0.187610045075,-0.133318573236,1.48790311813,-0.0224507339299,-0.0381109677255,-0.998388826847,-0.0355444587767
1535039846002875467,0,1535039845920726484,world,checkerboard,2.42779016495,0.800574064255,1.53555238247,-0.374982059002,-0.639298260212,-0.599914968014,-0.30131110549
1535039846002885509,0,1535039845920732501,world,kinect2_mocap,0.104221791029,-1.32799899578,1.35414493084,-0.0320228002965,-0.00167464115657,0.0574905127287,-0.997830986977
1535039846011203129,0,1535039845930977225,world,hand,-0.187478840351,-0.134106516838,1.49448680878,-0.0235631167889,-0.0405787266791,-0.998196125031,-0.0374541096389
1535039846012169473,0,1535039846012003389,kinect2_link,kinect2_rgb_optical_frame,0.0,0.0,0.0,0.0,0.0,0.0,1.0
1535039846012182204,0,1535039846012003389,kinect2_rgb_optical_frame,kinect2_ir_optical_frame,-0.0519399138017,0.00333959742795,0.00875866802314,-0.00453113942441,-0.00375492295549,0.00308026364555,0.999977940409
1535039846013666922,0,1535039845930998553,world,checkerboard,2.4277677536,0.800565540791,1.53554022312,-0.374956607819,-0.639275491238,-0.599937677383,-0.301345854998
1535039846013676423,0,1535039845931047484,world,kinect2_mocap,0.104221686721,-1.32799863815,1.35414469242,-0.0320231243968,-0.00167480227537,0.0574903525412,-0.997830986977
1535039846020425351,0,1535039845940257597,world,hand,-0.187288045883,-0.134775802493,1.50155472755,-0.024405663833,-0.0456517115235,-0.997976362705,-0.0369248017669
1535039846022215170,0,1535039846022086246,kinect2_link,kinect2_rgb_optical_frame,0.0,0.0,0.0,0.0,0.0,0.0,1.0
1535039846022364893,0,1535039846022086246,kinect2_rgb_optical_frame,kinect2_ir_optical_frame,-0.0519399138017,0.00333959742795,0.00875866802314,-0.00453113942441,-0.00375492295549,0.00308026364555,0.999977940409
1535039846022630976,0,1535039845940269550,world,checkerboard,2.42780041695,0.800592184067,1.53551650047,-0.37491196394,-0.639271318913,-0.599972128868,-0.301341533661
1535039846022638360,0,1535039845940276338,world,kinect2_mocap,0.104221574962,-1.32799804211,1.35414421558,-0.0320241823792,-0.00167474872433,0.0574901849031,-0.997830986977
1535039846022660383,0,1535039846062660860,/kinect2_mocap,/kinect2_link,0.0801417617159,0.0689299826583,-0.011685626472,-0.704332345391,-0.0271284587477,0.0479526774544,0.707729139351
1535039846030546608,0,1535039845950541499,world,hand,-0.187132030725,-0.135525509715,1.50825202465,-0.0266363266855,-0.0483071394265,-0.997777581215,-0.0373760648072
1535039846032322408,0,1535039846032171736,kinect2_link,kinect2_rgb_optical_frame,0.0,0.0,0.0,0.0,0.0,0.0,1.0
1535039846032332515,0,1535039846032171736,kinect2_rgb_optical_frame,kinect2_ir_optical_frame,-0.0519399138017,0.00333959742795,0.00875866802314,-0.00453113942441,-0.00375492295549,0.00308026364555,0.999977940409
1535039846032459390,0,1535039845950552169,world,checkerboard,2.42779040337,0.800584375858,1.5355206728,-0.374934822321,-0.639244914055,-0.599978983402,-0.301355600357
1535039846032466075,0,1535039845950584542,world,kinect2_mocap,0.104221656919,-1.32799744606,1.35414397717,-0.0320250503719,-0.00167463917751,0.0574899725616,-0.997830986977
1535039846040946427,0,1535039845960819474,world,hand,-0.186877399683,-0.136198878288,1.51506912708,-0.0281031914055,-0.051958180964,-0.997538924217,-0.0377709306777
1535039846042409686,0,1535039846042250519,kinect2_link,kinect2_rgb_optical_frame,0.0,0.0,0.0,0.0,0.0,0.0,1.0
1535039846042420556,0,1535039846042250519,kinect2_rgb_optical_frame,kinect2_ir_optical_frame,-0.0519399138017,0.00333959742795,0.00875866802314,-0.00453113942441,-0.00375492295549,0.00308026364555,0.999977940409
1535039846043195317,0,1535039845960833518,world,checkerboard,2.42778158188,0.800572395325,1.5355451107,-0.374952405691,-0.639194428921,-0.599998056889,-0.301402777433
1535039846043205331,0,1535039845960862520,world,kinect2_mocap,0.104221709073,-1.32799685001,1.35414397717,-0.0320273190737,-0.00167507643346,0.0574893839657,-0.997830867767
1535039846050067534,0,1535039845970011457,world,hand,-0.186505392194,-0.136787876487,1.52162075043,-0.0276063363999,-0.0546512044966,-0.997501432896,-0.0352451913059
1535039846052299224,0,1535039845970022507,world,checkerboard,2.42778730392,0.800566673279,1.53553557396,-0.374964624643,-0.639141142368,-0.5999827981,-0.301530987024
1535039846052318679,0,1535039845970026613,world,kinect2_mocap,0.104221828282,-1.32799649239,1.35414373875,-0.032028388232,-0.00167526432779,0.0574894435704,-0.997830867767
1535039846052322441,0,1535039845970033215,world,hand,-0.18622353673,-0.137470632792,1.52827394009,-0.0290220193565,-0.0587356090546,-0.997208178043,-0.0358296707273
1535039846052326647,0,1535039845970036727,world,checkerboard,2.42778158188,0.800547301769,1.53553855419,-0.374958604574,-0.639218211174,-0.599961996078,-0.301416218281
1535039846052330442,0,1535039845970040035,world,kinect2_mocap,0.104221858084,-1.32799613476,1.35414373875,-0.0320280529559,-0.00167502369732,0.0574896223843,-0.997830867767
1535039846052660839,0,1535039846052386553,kinect2_link,kinect2_rgb_optical_frame,0.0,0.0,0.0,0.0,0.0,0.0,1.0
1535039846052720817,0,1535039846052386553,kinect2_rgb_optical_frame,kinect2_ir_optical_frame,-0.0519399138017,0.00333959742795,0.00875866802314,-0.00453113942441,-0.00375492295549,0.00308026364555,0.999977940409
1535039846060442163,0,1535039845980264546,world,hand,-0.185980439186,-0.138143613935,1.53456616402,-0.0285069458187,-0.0614894926548,-0.997099339962,-0.0346334800124
1535039846062793927,0,1535039845980274784,world,checkerboard,2.42777466774,0.800551354885,1.53554356098,-0.374908596277,-0.639145672321,-0.600047051907,-0.301462829113
1535039846062810461,0,1535039845980278848,world,kinect2_mocap,0.104221872985,-1.32799553871,1.35414350033,-0.0320287048817,-0.00167474569753,0.0574894733727,-0.997830867767
1535039846065801582,0,1535039846063229439,kinect2_link,kinect2_rgb_optical_frame,0.0,0.0,0.0,0.0,0.0,0.0,1.0
