%time,field.transforms0.header.seq,field.transforms0.header.stamp,field.transforms0.header.frame_id,field.transforms0.child_frame_id,field.transforms0.transform.translation.x,field.transforms0.transform.translation.y,field.transforms0.transform.translation.z,field.transforms0.transform.rotation.x,field.transforms0.transform.rotation.y,field.transforms0.transform.rotation.z,field.transforms0.transform.rotation.w
1535040042226741158,0,1535040042142273458,world,hand,-0.185272857547,0.106377445161,1.16123557091,0.0984438732266,0.0516282841563,-0.969231069088,-0.219623684883
1535040042226803539,0,1535040042142311351,world,checkerboard,2.42777466774,0.800527691841,1.53561306,-0.374943196774,-0.639086604118,-0.600089251995,-0.301461368799
1535040042226811354,0,1535040042142319166,world,kinect2_mocap,0.104273714125,-1.32793414593,1.35415291786,-0.0317984893918,-0.00170911627356,0.0575181432068,-0.997836530209
1535040042229301707,0,1535040042224585279,kinect2_link,kinect2_rgb_optical_frame,0.0,0.0,0.0,0.0,0.0,0.0,1.0
1535040042229329272,0,1535040042224585279,kinect2_rgb_optical_frame,kinect2_ir_optical_frame,-0.0519399138017,0.00333959742795,0.00875866802314,-0.00453113942441,-0.00375492295549,0.00308026364555,0.999977940409
1535040042233086315,0,1535040042150664299,world,hand,-0.185214757919,0.106280438602,1.16130542755,0.0982452630997,0.0514818541706,-0.96925508976,-0.219641178846
1535040042234791441,0,1535040042234679868,kinect2_link,kinect2_rgb_optical_frame,0.0,0.0,0.0,0.0,0.0,0.0,1.0
1535040042234810634,0,1535040042234679868,kinect2_rgb_optical_frame,kinect2_ir_optical_frame,-0.0519399138017,0.00333959742795,0.00875866802314,-0.00453113942441,-0.00375492295549,0.00308026364555,0.999977940409
1535040042234948913,0,1535040042150678757,world,checkerboard,2.42777657509,0.800538599491,1.53563666344,-0.374975144863,-0.639102160931,-0.600044250488,-0.30147793889
1535040042234959325,0,1535040042150716349,world,kinect2_mocap,0.104276120663,-1.32793462276,1.35415220261,-0.0318187214434,-0.0017125136219,0.0575119107962,-0.997836172581
1535040042242258564,0,1535040042159970913,world,hand,-0.185209259391,0.106168054044,1.16145169735,0.0958506315947,0.0519405528903,-0.969426214695,-0.219835579395
1535040042244568721,0,1535040042159981910,world,checkerboard,2.42777872086,0.800503075123,1.53562808037,-0.374898374081,-0.639161288738,-0.60005569458,-0.30142557621
1535040042244578823,0,1535040042159986154,world,kinect2_mocap,0.104278504848,-1.3279350996,1.35415172577,-0.0318380333483,-0.00171575928107,0.0575057305396,-0.997835934162
1535040042244875775,0,1535040042244757351,kinect2_link,kinect2_rgb_optical_frame,0.0,0.0,0.0,0.0,0.0,0.0,1.0
1535040042244884617,0,1535040042244757351,kinect2_rgb_optical_frame,kinect2_ir_optical_frame,-0.0519399138017,0.00333959742795,0.00875866802314,-0.00453113942441,-0.00375492295549,0.00308026364555,0.999977940409
1535040042252399412,0,1535040042170165061,world,hand,-0.184936717153,0.105915278196,1.16142308712,0.0977177396417,0.0514895096421,-0.969507098198,-0.218760222197
1535040042254673458,0,1535040042170174653,world,checkerboard,2.4277920723,0.800488710403,1.53560531139,-0.374950140715,-0.639204382896,-0.599954009056,-0.301471978426
1535040042254713105,0,1535040042170178913,world,kinect2_mocap,0.104278996587,-1.32793533802,1.35415220261,-0.0318365059793,-0.00171607779339,0.0575061775744,-0.997835934162
1535040042257120180,0,1535040042254839860,kinect2_link,kinect2_rgb_optical_frame,0.0,0.0,0.0,0.0,0.0,0.0,1.0
1535040042257131929,0,1535040042254839860,kinect2_rgb_optical_frame,kinect2_ir_optical_frame,-0.0519399138017,0.00333959742795,0.00875866802314,-0.00453113942441,-0.00375492295549,0.00308026364555,0.999977940409
1535040042264347317,0,1535040042180715665,world,hand,-0.184957846999,0.105829820037,1.16145956516,0.0975826233625,0.0518771186471,-0.969241440296,-0.219903513789
1535040042265035137,0,1535040042264924347,kinect2_link,kinect2_rgb_optical_frame,0.0,0.0,0.0,0.0,0.0,0.0,1.0
1535040042265045416,0,1535040042264924347,kinect2_rgb_optical_frame,kinect2_ir_optical_frame,-0.0519399138017,0.00333959742795,0.00875866802314,-0.00453113942441,-0.00375492295549,0.00308026364555,0.999977940409
1535040042266862471,0,1535040042180728892,world,checkerboard,2.42780590057,0.800491452217,1.53559136391,-0.374987542629,-0.63908469677,-0.600053429604,-0.301481366158
1535040042266875417,0,1535040042180734622,world,kinect2_mocap,0.104279443622,-1.32793581486,1.35415244102,-0.0318357087672,-0.00171647733077,0.0575066842139,-0.997835934162
1535040042266883904,0,1535040042180741846,world,hand,-0.18486481905,0.105711303651,1.16149640083,0.0977053567767,0.0521997772157,-0.969209849834,-0.21991199255
1535040042266898126,0,1535040042180745329,world,checkerboard,2.4278178215,0.800462424755,1.53557443619,-0.374921619892,-0.639145791531,-0.600029289722,-0.301481932402
1535040042266905405,0,1535040042180748768,world,kinect2_mocap,0.104279838502,-1.32793605328,1.35415267944,-0.0318346768618,-0.00171664892696,0.0575073100626,-0.997835934162
1535040042272316690,0,1535040042309728886,/kinect2_mocap,/kinect2_link,0.0801417617159,0.0689299826583,-0.011685626472,-0.704332345391,-0.0271284587477,0.0479526774544,0.707729139351
1535040042273299752,0,1535040042190944484,world,hand,-0.184740826488,0.105564452708,1.16152787209,0.0979819744825,0.052517157048,-0.969177365303,-0.219856336713
1535040042275308854,0,1535040042275014001,kinect2_link,kinect2_rgb_optical_frame,0.0,0.0,0.0,0.0,0.0,0.0,1.0
1535040042275327861,0,1535040042275014001,kinect2_rgb_optical_frame,kinect2_ir_optical_frame,-0.0519399138017,0.00333959742795,0.00875866802314,-0.00453113942441,-0.00375492295549,0.00308026364555,0.999977940409
1535040042275913327,0,1535040042190953809,world,checkerboard,2.42782473564,0.800461173058,1.53558552265,-0.374868571758,-0.639075160027,-0.600162804127,-0.3014318645
1535040042275920650,0,1535040042190957823,world,kinect2_mocap,0.104280136526,-1.32793629169,1.35415291786,-0.0318324565887,-0.00171677942853,0.0575084574521,-0.997835934162
1535040042282668651,0,1535040042200246035,world,hand,-0.185519292951,0.105755276978,1.16141712666,0.0948899537325,0.0515625923872,-0.971400499344,-0.211466908455
1535040042284906471,0,1535040042200253968,world,checkerboard,2.42780733109,0.800484538078,1.53559076786,-0.374918550253,-0.63914424181,-0.600061058998,-0.301425904036
1535040042284919319,0,1535040042200258700,world,kinect2_mocap,0.104282222688,-1.32793700695,1.35415220261,-0.0318524912,-0.00172045570798,0.0575035065413,-0.997835576534
1535040042285793483,0,1535040042285135558,kinect2_link,kinect2_rgb_optical_frame,0.0,0.0,0.0,0.0,0.0,0.0,1.0
1535040042285807098,0,1535040042285135558,kinect2_rgb_optical_frame,kinect2_ir_optical_frame,-0.0519399138017,0.00333959742795,0.00875866802314,-0.00453113942441,-0.00375492295549,0.00308026364555,0.999977940409
1535040042292811308,0,1535040042210604290,world,hand,-0.185348510742,0.105610340834,1.16145861149,0.0945847854018,0.0518329441547,-0.971484959126,-0.211149454117
1535040042295407710,0,1535040042210641416,world,checkerboard,2.42779564857,0.800497889519,1.53558802605,-0.374861508608,-0.639156401157,-0.600116789341,-0.301360100508
1535040042295432307,0,1535040042210670247,world,kinect2_mocap,0.10428250581,-1.32793772221,1.35415244102,-0.0318520329893,-0.00172112567816,0.0575048923492,-0.997835576534
1535040042295609558,0,1535040042295238593,kinect2_link,kinect2_rgb_optical_frame,0.0,0.0,0.0,0.0,0.0,0.0,1.0
1535040042295625322,0,1535040042295238593,kinect2_rgb_optical_frame,kinect2_ir_optical_frame,-0.0519399138017,0.00333959742795,0.00875866802314,-0.00453113942441,-0.00375492295549,0.00308026364555,0.999977940409
1535040042303206132,0,1535040042220950979,world,hand,-0.185176059604,0.105448670685,1.16150176525,0.0942815691233,0.0520961508155,-0.971517980099,-0.21106813848
1535040042305377319,0,1535040042220961567,world,checkerboard,2.42778086662,0.800504565239,1.53558981419,-0.374898552895,-0.639142513275,-0.600086510181,-0.301403909922
1535040042305398782,0,1535040042220966033,world,kinect2_mocap,0.104282818735,-1.32793819904,1.35415267944,-0.0318495817482,-0.0017209846992,0.0575067065656,-0.997835457325
1535040042305404083,0,1535040042220971958,world,hand,-0.183964669704,0.104881972075,1.16165590286,0.0973777994514,0.0532951019704,-0.969636082649,-0.217906162143
1535040042305408552,0,1535040042220975335,world,checkerboard,2.42777299881,0.800508022308,1.53557491302,-0.374932616949,-0.639246821404,-0.59999859333,-0.301315039396
1535040042305422131,0,1535040042220979098,world,kinect2_mocap,0.104283049703,-1.32793843746,1.35415267944,-0.0318465419114,-0.00172078749165,0.0575084686279,-0.997835457325
1535040042305570910,0,1535040042305429761,kinect2_link,kinect2_rgb_optical_frame,0.0,0.0,0.0,0.0,0.0,0.0,1.0
1535040042305583389,0,1535040042305429761,kinect2_rgb_optical_frame,kinect2_ir_optical_frame,-0.0519399138017,0.00333959742795,0.00875866802314,-0.00453113942441,-0.00375492295549,0.00308026364555,0.999977940409
1535040042312437913,0,1535040042230158445,world,hand,-0.183765172958,0.104718372226,1.16169965267,0.0972239151597,0.0536139085889,-0.969631969929,-0.217915505171
1535040042314177187,0,1535040042230171790,world,checkerboard,2.42776608467,0.800502419472,1.53556191921,-0.374883264303,-0.639177680016,-0.600098371506,-0.30132445693
1535040042314192014,0,1535040042230197778,world,kinect2_mocap,0.104283317924,-1.32793867588,1.35415244102,-0.0318433232605,-0.00172080064658,0.0575099550188,-0.997835576534
1535040042315787924,0,1535040042315526377,kinect2_link,kinect2_rgb_optical_frame,0.0,0.0,0.0,0.0,0.0,0.0,1.0
1535040042315803996,0,1535040042315526377,kinect2_rgb_optical_frame,kinect2_ir_optical_frame,-0.0519399138017,0.00333959742795,0.00875866802314,-0.00453113942441,-0.00375492295549,0.00308026364555,0.999977940409
1535040042322764337,0,1535040042240471431,world,hand,-0.183683052659,0.104528300464,1.16178894043,0.097328543663,0.0536599084735,-0.969502031803,-0.218434736133
1535040042324906153,0,1535040042240512519,world,checkerboard,2.42776632309,0.800526857376,1.53555941582,-0.374898523092,-0.639161169529,-0.600096285343,-0.301344752312
1535040042324925378,0,1535040042240521963,world,kinect2_mocap,0.104283422232,-1.3279389143,1.35415220261,-0.031840916723,-0.00172095024027,0.0575112700462,-0.997835576534
1535040042328055776,0,1535040042325624300,kinect2_link,kinect2_rgb_optical_frame,0.0,0.0,0.0,0.0,0.0,0.0,1.0
1535040042328072094,0,1535040042325624300,kinect2_rgb_optical_frame,kinect2_ir_optical_frame,-0.0519399138017,0.00333959742795,0.00875866802314,-0.00453113942441,-0.00375492295549,0.00308026364555,0.999977940409
1535040042333043312,0,1535040042250779274,world,hand,-0.18335776031,0.10433229059,1.16187953949,0.094941996038,0.0547183528543,-0.969789206982,-0.21794706583
1535040042335052131,0,1535040042250793761,world,checkerboard,2.42772340775,0.800514817238,1.53557276726,-0.374910116196,-0.639144361019,-0.600070059299,-0.301418155432
1535040042335065148,0,1535040042250798501,world,kinect2_mocap,0.104283511639,-1.32793915272,1.35415196419,-0.0318382494152,-0.00172142998781,0.0575128681958,-0.997835457325
1535040042335900556,0,1535040042335705018,kinect2_link,kinect2_rgb_optical_frame,0.0,0.0,0.0,0.0,0.0,0.0,1.0
1535040042335912708,0,1535040042335705018,kinect2_rgb_optical_frame,kinect2_ir_optical_frame,-0.0519399138017,0.00333959742795,0.00875866802314,-0.00453113942441,-0.00375492295549,0.00308026364555,0.999977940409
1535040042344052201,0,1535040042259985089,world,hand,-0.183159098029,0.104109920561,1.16194665432,0.0946693196893,0.055027499795,-0.969838917255,-0.217766687274
1535040042346062835,0,1535040042345811999,kinect2_link,kinect2_rgb_optical_frame,0.0,0.0,0.0,0.0,0.0,0.0,1.0
1535040042346077859,0,1535040042345811999,kinect2_rgb_optical_frame,kinect2_ir_optical_frame,-0.0519399138017,0.00333959742795,0.00875866802314,-0.00453113942441,-0.00375492295549,0.00308026364555,0.999977940409
1535040042346520177,0,1535040042259998197,world,checkerboard,2.42774367332,0.800526916981,1.53556895256,-0.374949097633,-0.639172017574,-0.600033760071,-0.30138322711
1535040042346532751,0,1535040042260005465,world,kinect2_mocap,0.104285240173,-1.3279389143,1.35415077209,-0.031856611371,-0.00172461103648,0.0575073957443,-0.997835218906
1535040042352745119,0,1535040042270317150,world,hand,-0.183074444532,0.103916987777,1.1620143652,0.0941591262817,0.0554101653397,-0.969639539719,-0.21877618134
1535040042355267437,0,1535040042270351386,world,checkerboard,2.42771887779,0.80052369833,1.5355733633,-0.374941319227,-0.639208376408,-0.600028932095,-0.301325440407
1535040042355282546,0,1535040042270359424,world,kinect2_mocap,0.104285374284,-1.32793867588,1.35415053368,-0.0318527780473,-0.00172422628384,0.0575093254447,-0.997835218906
1535040042361750367,0,1535040042355906331,kinect2_link,kinect2_rgb_optical_frame,0.0,0.0,0.0,0.0,0.0,0.0,1.0
1535040042361767421,0,1535040042355906331,kinect2_rgb_optical_frame,kinect2_ir_optical_frame,-0.0519399138017,0.00333959742795,0.00875866802314,-0.00453113942441,-0.00375492295549,0.00308026364555,0.999977940409
1535040042362923290,0,1535040042280607145,world,hand,-0.182724893093,0.103217318654,1.1609146595,0.07615519315,0.0376718342304,-0.970889508724,-0.223952874541
1535040042365077124,0,1535040042280618523,world,checkerboard,2.42772483826,0.800542235374,1.53556966782,-0.374903589487,-0.639147043228,-0.600079596043,-0.30140131712
1535040042365117284,0,1535040042280623179,world,kinect2_mocap,0.104285225272,-1.32793819904,1.35415029526,-0.031850297004,-0.00172447599471,0.0575106032193,-0.997835218906
1535040042365121591,0,1535040042280733147,world,hand,-0.182457998395,0.102896772325,1.16096580029,0.0759123414755,0.0378296226263,-0.970915317535,-0.223896846175
1535040042365156978,0,1535040042280742871,world,checkerboard,2.4277369976,0.800531923771,1.53555524349,-0.374951690435,-0.639211535454,-0.59999537468,-0.301372677088
1535040042365170653,0,1535040042280849328,world,kinect2_mocap,0.104285217822,-1.32793772221,1.35414981842,-0.0318480990827,-0.00172448740341,0.0575119033456,-0.997835218906
1535040042366237894,0,1535040042366014483,kinect2_link,kinect2_rgb_optical_frame,0.0,0.0,0.0,0.0,0.0,0.0,1.0
1535040042366256194,0,1535040042366014483,kinect2_rgb_optical_frame,kinect2_ir_optical_frame,-0.0519399138017,0.00333959742795,0.00875866802314,-0.00453113942441,-0.00375492295549,0.00308026364555,0.999977940409
1535040042372417678,0,1535040042290026806,world,hand,-0.182107388973,0.102564901114,1.16121041775,0.078289501369,0.0397688485682,-0.970981657505,-0.22244989872
1535040042374437307,0,1535040042290095199,world,checkerboard,2.427724123,0.800519585609,1.53555810452,-0.374979019165,-0.639106452465,-0.600073695183,-0.301405638456
1535040042374446579,0,1535040042290110100,world,kinect2_mocap,0.104285158217,-1.32793724537,1.35414910316,-0.0318469107151,-0.00172529392876,0.0575128979981,-0.997835218906
1535040042376279185,0,1535040042376110697,kinect2_link,kinect2_rgb_optical_frame,0.0,0.0,0.0,0.0,0.0,0.0,1.0
1535040042376286040,0,1535040042376110697,kinect2_rgb_optical_frame,kinect2_ir_optical_frame,-0.0519399138017,0.00333959742795,0.00875866802314,-0.00453113942441,-0.00375492295549,0.00308026364555,0.999977940409
1535040042382754711,0,1535040042300357000,world,hand,-0.181794390082,0.102211490273,1.1613253355,0.0778004825115,0.0400251150131,-0.971035420895,-0.222341001034
1535040042385366518,0,1535040042300364175,world,checkerboard,2.42775034904,0.80053037405,1.53554940224,-0.374973833561,-0.639136433601,-0.600038290024,-0.301418840885
1535040042385379717,0,1535040042300418682,world,kinect2_mocap,0.104284964502,-1.32793700695,1.35414862633,-0.0318446755409,-0.00172589847352,0.0575140751898,-0.997835218906
1535040042386784178,0,1535040042386200050,kinect2_link,kinect2_rgb_optical_frame,0.0,0.0,0.0,0.0,0.0,0.0,1.0
1535040042386846569,0,1535040042386200050,kinect2_rgb_optical_frame,kinect2_ir_optical_frame,-0.0519399138017,0.00333959742795,0.00875866802314,-0.00453113942441,-0.00375492295549,0.00308026364555,0.999977940409
1535040042392133464,0,1535040042429848687,/kinect2_mocap,/kinect2_link,0.0801417617159,0.0689299826583,-0.011685626472,-0.704332345391,-0.0271284587477,0.0479526774544,0.707729139351
1535040042393101093,0,1535040042310639618,world,hand,-0.181501612067,0.101839654148,1.16139340401,0.0755212381482,0.0395638570189,-0.970964610577,-0.223515063524
1535040042395578006,0,1535040042310651519,world,checkerboard,2.42775511742,0.800526499748,1.53554618359,-0.374970823526,-0.639177083969,-0.600002706051,-0.301407277584
1535040042395600910,0,1535040042310656763,world,kinect2_mocap,0.104284495115,-1.32793676853,1.35414838791,-0.0318426042795,-0.00172622327227,0.0575148202479,-0.997835218906
1535040042397755472,0,1535040042396298859,kinect2_link,kinect2_rgb_optical_frame,0.0,0.0,0.0,0.0,0.0,0.0,1.0
1535040042397821949,0,1535040042396298859,kinect2_rgb_optical_frame,kinect2_ir_optical_frame,-0.0519399138017,0.00333959742795,0.00875866802314,-0.00453113942441,-0.00375492295549,0.00308026364555,0.999977940409
1535040042403182106,0,1535040042320832749,world,hand,-0.181137382984,0.101766131818,1.16284501553,0.0939043313265,0.0579702667892,-0.969765901566,-0.217659309506
1535040042405395572,0,1535040042320841972,world,checkerboard,2.42773222923,0.800528287888,1.53555238247,-0.374895781279,-0.63917440176,-0.600068509579,-0.301375329494
1535040042405408446,0,1535040042320866580,world,kinect2_mocap,0.104283906519,-1.32793653011,1.35414862633,-0.0318405330181,-0.00172607705463,0.0575153715909,-0.997835338116
1535040042406521102,0,1535040042406384561,kinect2_link,kinect2_rgb_optical_frame,0.0,0.0,0.0,0.0,0.0,0.0,1.0
1535040042406543281,0,1535040042406384561,kinect2_rgb_optical_frame,kinect2_ir_optical_frame,-0.0519399138017,0.00333959742795,0.00875866802314,-0.00453113942441,-0.00375492295549,0.00308026364555,0.999977940409
1535040042412355514,0,1535040042330049155,world,hand,-0.180665642023,0.101260207593,1.1630833149,0.0935107320547,0.0591678097844,-0.969829499722,-0.217223003507
1535040042414381583,0,1535040042330058153,world,checkerboard,2.42773866653,0.80051535368,1.53555762768,-0.375003427267,-0.639168798923,-0.599978327751,-0.301433026791
1535040042414396869,0,1535040042330062195,world,kinect2_mocap,0.104283384979,-1.32793653011,1.35414886475,-0.031839042902,-0.00172585458495,0.0575155541301,-0.997835338116
1535040042414401245,0,1535040042330068205,world,hand,-0.180285811424,0.100787989795,1.1633541584,0.0936715602875,0.0594586320221,-0.969815433025,-0.217137172818
1535040042414436449,0,1535040042330071688,world,checkerboard,2.42772221565,0.800514698029,1.53555774689,-0.374975323677,-0.639136552811,-0.600017547607,-0.301458001137
1535040042414440423,0,1535040042330075077,world,kinect2_mocap,0.104282848537,-1.32793676853,1.35414910316,-0.0318391285837,-0.00172603793908,0.0575154013932,-0.997835338116
1535040042416606560,0,1535040042416466408,kinect2_link,kinect2_rgb_optical_frame,0.0,0.0,0.0,0.0,0.0,0.0,1.0
1535040042416617502,0,1535040042416466408,kinect2_rgb_optical_frame,kinect2_ir_optical_frame,-0.0519399138017,0.00333959742795,0.00875866802314,-0.00453113942441,-0.00375492295549,0.00308026364555,0.999977940409
1535040042422650639,0,1535040042340302807,world,hand,-0.179785251617,0.100254528224,1.16370713711,0.094020627439,0.0596162974834,-0.969796359539,-0.217027649283
1535040042425010065,0,1535040042340316418,world,checkerboard,2.42773246765,0.800531685352,1.53556144238,-0.375011622906,-0.639170765877,-0.599969208241,-0.301436573267
1535040042425030607,0,1535040042340374142,world,kinect2_mocap,0.104282312095,-1.32793676853,1.35414910316,-0.0318383201957,-0.00172606424894,0.057515501976,-0.997835338116
1535040042426731334,0,1535040042426552937,kinect2_link,kinect2_rgb_optical_frame,0.0,0.0,0.0,0.0,0.0,0.0,1.0
1535040042426763430,0,1535040042426552937,kinect2_rgb_optical_frame,kinect2_ir_optical_frame,-0.0519399138017,0.00333959742795,0.00875866802314,-0.00453113942441,-0.00375492295549,0.00308026364555,0.999977940409
1535040042433147073,0,1535040042350580524,world,hand,-0.17924824357,0.0996505692601,1.16416466236,0.0932392403483,0.0597601681948,-0.970025956631,-0.216298386455
1535040042436773448,0,1535040042436642477,kinect2_link,kinect2_rgb_optical_frame,0.0,0.0,0.0,0.0,0.0,0.0,1.0
1535040042436785513,0,1535040042436642477,kinect2_rgb_optical_frame,kinect2_ir_optical_frame,-0.0519399138017,0.00333959742795,0.00875866802314,-0.00453113942441,-0.00375492295549,0.00308026364555,0.999977940409
1535040042436794418,0,1535040042350590732,world,checkerboard,2.42771077156,0.800539672375,1.53556597233,-0.375012099743,-0.639097869396,-0.600032448769,-0.301464498043
1535040042436801345,0,1535040042350594987,world,kinect2_mocap,0.104281812906,-1.32793676853,1.35414910316,-0.0318372957408,-0.00172576447949,0.057515643537,-0.997835338116
1535040042443104215,0,1535040042360772498,world,hand,-0.178597539663,0.0987159013748,1.16371536255,0.0780234709382,0.045510340482,-0.971316516399,-0.219967067242
1535040042445757162,0,1535040042360782202,world,checkerboard,2.42768216133,0.800514876842,1.53559207916,-0.374980598688,-0.639113664627,-0.60003054142,-0.301474362612
1535040042445773199,0,1535040042360831694,world,kinect2_mocap,0.10428134352,-1.32793676853,1.35414934158,-0.0318345054984,-0.00172542023938,0.0575161315501,-0.997835457325
1535040042446949687,0,1535040042446730604,kinect2_link,kinect2_rgb_optical_frame,0.0,0.0,0.0,0.0,0.0,0.0,1.0
1535040042446962993,0,1535040042446730604,kinect2_rgb_optical_frame,kinect2_ir_optical_frame,-0.0519399138017,0.00333959742795,0.00875866802314,-0.00453113942441,-0.00375492295549,0.00308026364555,0.999977940409
1535040042452283247,0,1535040042370051047,world,hand,-0.178217858076,0.0982567593455,1.16535687447,0.0935949906707,0.0606710202992,-0.969988822937,-0.216057106853
1535040042454717926,0,1535040042370067394,world,checkerboard,2.42767238617,0.80050188303,1.53560185432,-0.375037193298,-0.639189124107,-0.59991723299,-0.301469326019
1535040042454776189,0,1535040042370152708,world,kinect2_mocap,0.104281000793,-1.32793653011,1.35414958,-0.0318344309926,-0.00172566785477,0.0575160905719,-0.997835457325
1535040042459391952,0,1535040042456833019,kinect2_link,kinect2_rgb_optical_frame,0.0,0.0,0.0,0.0,0.0,0.0,1.0
1535040042462950514,0,1535040042380514376,world,hand,-0.177393168211,0.097321242094,1.16600680351,0.0930050238967,0.0617746561766,-0.970073163509,-0.215620100498
1535040042464692317,0,1535040042456833019,kinect2_rgb_optical_frame,kinect2_ir_optical_frame,-0.0519399138017,0.00333959742795,0.00875866802314,-0.00453113942441,-0.00375492295549,0.00308026364555,0.999977940409
1535040042465051851,0,1535040042380527007,world,checkerboard,2.42765283585,0.800514519215,1.53560745716,-0.375007927418,-0.639189183712,-0.599961936474,-0.301416665316
1535040042465062085,0,1535040042380551408,world,kinect2_mocap,0.10428070277,-1.32793653011,1.35415005684,-0.0318343304098,-0.00172557216138,0.0575158186257,-0.997835457325
1535040042465065960,0,1535040042380562465,world,hand,-0.177517697215,0.0966889038682,1.16666722298,0.0900381952524,0.0608695484698,-0.972274124622,-0.207053244114
1535040042465079219,0,1535040042380567385,world,checkerboard,2.4276497364,0.800502061844,1.53560519218,-0.375100076199,-0.639159560204,-0.599890530109,-0.30150693655
1535040042465084471,0,1535040042380572527,world,kinect2_mocap,0.104280494153,-1.32793653011,1.35415029526,-0.0318340957165,-0.00172562850639,0.0575153231621,-0.997835457325
1535040042469426063,0,1535040042469294647,kinect2_link,kinect2_rgb_optical_frame,0.0,0.0,0.0,0.0,0.0,0.0,1.0
1535040042469470511,0,1535040042469294647,kinect2_rgb_optical_frame,kinect2_ir_optical_frame,-0.0519399138017,0.00333959742795,0.00875866802314,-0.00453113942441,-0.00375492295549,0.00308026364555,0.999977940409
1535040042472944224,0,1535040042390791425,world,hand,-0.175827622414,0.0949994325638,1.16654670238,0.0747511163354,0.044612981379,-0.971892476082,-0.218739822507
1535040042475107948,0,1535040042390819392,world,checkerboard,2.42765665054,0.80046159029,1.53560292721,-0.375010669231,-0.639052569866,-0.600048720837,-0.301530092955
1535040042475118907,0,1535040042390826250,world,kinect2_mocap,0.104280360043,-1.32793653011,1.35415029526,-0.0318328328431,-0.00172562233638,0.0575157813728,-0.997835457325
1535040042479523675,0,1535040042479378241,kinect2_link,kinect2_rgb_optical_frame,0.0,0.0,0.0,0.0,0.0,0.0,1.0
1535040042479535562,0,1535040042479378241,kinect2_rgb_optical_frame,kinect2_ir_optical_frame,-0.0519399138017,0.00333959742795,0.00875866802314,-0.00453113942441,-0.00375492295549,0.00308026364555,0.999977940409
1535040042482411896,0,1535040042399977099,world,hand,-0.175751775503,0.0943695753813,1.16843771935,0.0885011330247,0.0613651610911,-0.972486793995,-0.206570520997
1535040042484753388,0,1535040042400016181,world,checkerboard,2.42770218849,0.800422728062,1.53559529781,-0.375054389238,-0.639095664024,-0.599996984005,-0.301487147808
1535040042484770240,0,1535040042400025738,world,kinect2_mocap,0.104280143976,-1.32793653011,1.35415029526,-0.0318326540291,-0.00172572676092,0.0575157962739,-0.997835576534
1535040042492593995,0,1535040042410284766,world,hand,-0.173825219274,0.0923583135009,1.16857922077,0.0733179301023,0.0462851263583,-0.97189027071,-0.218886718154
1535040042492844276,0,1535040042489511434,kinect2_link,kinect2_rgb_optical_frame,0.0,0.0,0.0,0.0,0.0,0.0,1.0
1535040042492852294,0,1535040042489511434,kinect2_rgb_optical_frame,kinect2_ir_optical_frame,-0.0519399138017,0.00333959742795,0.00875866802314,-0.00453113942441,-0.00375492295549,0.00308026364555,0.999977940409
1535040042494801746,0,1535040042410323635,world,checkerboard,2.42767763138,0.80038100481,1.5355900526,-0.375026553869,-0.639052271843,-0.600066959858,-0.301474809647
1535040042494827231,0,1535040042410331908,world,kinect2_mocap,0.104279868305,-1.32793653011,1.35415029526,-0.0318321436644,-0.00172583782114,0.0575158409774,-0.997835576534
1535040042499907714,0,1535040042499615802,kinect2_link,kinect2_rgb_optical_frame,0.0,0.0,0.0,0.0,0.0,0.0,1.0
1535040042499928850,0,1535040042499615802,kinect2_rgb_optical_frame,kinect2_ir_optical_frame,-0.0519399138017,0.00333959742795,0.00875866802314,-0.00453113942441,-0.00375492295549,0.00308026364555,0.999977940409
1535040042503648688,0,1535040042420591040,world,hand,-0.172997236252,0.0907552987337,1.17022228241,0.0779385641217,0.0529875829816,-0.971746683121,-0.216394037008
1535040042505991386,0,1535040042420621205,world,checkerboard,2.42767286301,0.800400614738,1.53559911251,-0.374942749739,-0.639132142067,-0.600060522556,-0.301422357559
1535040042506005384,0,1535040042420659438,world,kinect2_mocap,0.104279696941,-1.32793653011,1.35415005684,-0.0318301133811,-0.00172581186052,0.0575162619352,-0.997835576534
1535040042509908782,0,1535040042509749008,kinect2_link,kinect2_rgb_optical_frame,0.0,0.0,0.0,0.0,0.0,0.0,1.0
1535040042509928574,0,1535040042509749008,kinect2_rgb_optical_frame,kinect2_ir_optical_frame,-0.0519399138017,0.00333959742795,0.00875866802314,-0.00453113942441,-0.00375492295549,0.00308026364555,0.999977940409
1535040042512517210,0,1535040042549935258,/kinect2_mocap,/kinect2_link,0.0801417617159,0.0689299826583,-0.011685626472,-0.704332345391,-0.0271284587477,0.0479526774544,0.707729139351
1535040042513226154,0,1535040042430909094,world,hand,-0.17242872715,0.0896749719977,1.1720468998,0.0850401073694,0.0646811127663,-0.973305642605,-0.203127473593
1535040042515259439,0,1535040042430943953,world,checkerboard,2.42771244049,0.80042886734,1.53561103344,-0.374927163124,-0.639138042927,-0.600090444088,-0.301369696856
1535040042515281658,0,1535040042430952891,world,kinect2_mocap,0.10427942127,-1.32793676853,1.35415005684,-0.0318288207054,-0.00172566110268,0.0575163848698,-0.997835576534
1535040042515287904,0,1535040042430964573,world,hand,-0.171136319637,0.0877689868212,1.17363011837,0.0840950235724,0.0639454722404,-0.973509967327,-0.202774301171
1535040042515294778,0,1535040042430970149,world,checkerboard,2.42773246765,0.800463438034,1.53561258316,-0.374870240688,-0.639123618603,-0.600154340267,-0.301343739033
1535040042515313106,0,1535040042430975450,world,kinect2_mocap,0.104279443622,-1.32793700695,1.35415005684,-0.0318279750645,-0.0017253899714,0.0575164891779,-0.997835576534
1535040042520090240,0,1535040042519831795,kinect2_link,kinect2_rgb_optical_frame,0.0,0.0,0.0,0.0,0.0,0.0,1.0
1535040042520152360,0,1535040042519831795,kinect2_rgb_optical_frame,kinect2_ir_optical_frame,-0.0519399138017,0.00333959742795,0.00875866802314,-0.00453113942441,-0.00375492295549,0.00308026364555,0.999977940409
1535040042522628534,0,1535040042440180236,world,hand,-0.168911710382,0.0851938426495,1.17429506779,0.0680114105344,0.0480922088027,-0.97366887331,-0.212204158306
1535040042524940916,0,1535040042440213179,world,checkerboard,2.42778372765,0.800504744053,1.53561425209,-0.37487128377,-0.639098763466,-0.600133121014,-0.301437526941
1535040042524976225,0,1535040042440220778,world,kinect2_mocap,0.104279398918,-1.32793724537,1.35414981842,-0.0318247973919,-0.00172449671663,0.0575175136328,-0.997835695744
1535040042530155282,0,1535040042529942700,kinect2_link,kinect2_rgb_optical_frame,0.0,0.0,0.0,0.0,0.0,0.0,1.0
1535040042530572997,0,1535040042529942700,kinect2_rgb_optical_frame,kinect2_ir_optical_frame,-0.0519399138017,0.00333959742795,0.00875866802314,-0.00453113942441,-0.00375492295549,0.00308026364555,0.999977940409
1535040042532878087,0,1535040042450524741,world,hand,-0.168442249298,0.0838612169027,1.17724645138,0.0817669257522,0.0639805421233,-0.974569618702,-0.198581725359
1535040042534986312,0,1535040042450560169,world,checkerboard,2.4277715683,0.80050855875,1.53561317921,-0.374953657389,-0.639099895954,-0.600063562393,-0.301471114159
1535040042535004149,0,1535040042450568143,world,kinect2_mocap,0.104279503226,-1.32793748379,1.35414958,-0.0318220146,-0.00172382302117,0.0575185231864,-0.997835695744
1535040042540198598,0,1535040042540037526,kinect2_link,kinect2_rgb_optical_frame,0.0,0.0,0.0,0.0,0.0,0.0,1.0
1535040042540214212,0,1535040042540037526,kinect2_rgb_optical_frame,kinect2_ir_optical_frame,-0.0519399138017,0.00333959742795,0.00875866802314,-0.00453113942441,-0.00375492295549,0.00308026364555,0.999977940409
1535040042543459632,0,1535040042461030928,world,hand,-0.165939539671,0.0810625329614,1.17813408375,0.0647875666618,0.0445541292429,-0.974702060223,-0.209220990539
1535040042545486851,0,1535040042461044809,world,checkerboard,2.42775154114,0.800508379936,1.53560733795,-0.374913752079,-0.639209091663,-0.599996328354,-0.301423162222
1535040042545505988,0,1535040042461051329,world,kinect2_mocap,0.104281313717,-1.32793772221,1.35414838791,-0.0318410694599,-0.00172639172524,0.0575122237206,-0.997835457325
1535040042550266020,0,1535040042550128246,kinect2_link,kinect2_rgb_optical_frame,0.0,0.0,0.0,0.0,0.0,0.0,1.0
1535040042550302268,0,1535040042550128246,kinect2_rgb_optical_frame,kinect2_ir_optical_frame,-0.0519399138017,0.00333959742795,0.00875866802314,-0.00453113942441,-0.00375492295549,0.00308026364555,0.999977940409
1535040042554447428,0,1535040042470303730,world,hand,-0.164264708757,0.0788168758154,1.18059980869,0.0654453933239,0.0473193563521,-0.974944531918,-0.207270503044
1535040042556981978,0,1535040042470338577,world,checkerboard,2.42766952515,0.800538957119,1.53562164307,-0.374899059534,-0.639288187027,-0.599995553493,-0.301275014877
1535040042556995940,0,1535040042470347043,world,kinect2_mocap,0.104283109307,-1.32793796062,1.35414719582,-0.0318612828851,-0.00172918778844,0.057505838573,-0.997835099697
1535040042560642963,0,1535040042560239883,kinect2_link,kinect2_rgb_optical_frame,0.0,0.0,0.0,0.0,0.0,0.0,1.0
1535040042560656255,0,1535040042560239883,kinect2_rgb_optical_frame,kinect2_ir_optical_frame,-0.0519399138017,0.00333959742795,0.00875866802314,-0.00453113942441,-0.00375492295549,0.00308026364555,0.999977940409
1535040042562975820,0,1535040042480665355,world,hand,-0.163696914911,0.0771485641599,1.18406808376,0.0783921256661,0.0602073036134,-0.976189672947,-0.193089291453
1535040042565231674,0,1535040042480679679,world,checkerboard,2.42768406868,0.800518751144,1.53562307358,-0.375079572201,-0.639199435711,-0.599912464619,-0.301404297352
1535040042565244138,0,1535040042480686742,world,kinect2_mocap,0.104285076261,-1.32793843746,1.35414600372,-0.0318806506693,-0.0017324257642,0.0574993900955,-0.997834861279
1535040042565262980,0,1535040042480696133,world,hand,-0.160947009921,0.074081748724,1.18607783318,0.0672399774194,0.0492429733276,-0.975570559502,-0.203263387084
1535040042565280617,0,1535040042480699788,world,checkerboard,2.42773270607,0.800500512123,1.5356117487,-0.375029802322,-0.63915938139,-0.599953234196,-0.301469892263
1535040042565314513,0,1535040042480703425,world,kinect2_mocap,0.104287207127,-1.3279389143,1.35414481163,-0.0319004505873,-0.00173509423621,0.057493083179,-0.99783462286
1535040042570557353,0,1535040042570332188,kinect2_link,kinect2_rgb_optical_frame,0.0,0.0,0.0,0.0,0.0,0.0,1.0
1535040042570578049,0,1535040042570332188,kinect2_rgb_optical_frame,kinect2_ir_optical_frame,-0.0519399138017,0.00333959742795,0.00875866802314,-0.00453113942441,-0.00375492295549,0.00308026364555,0.999977940409
1535040042573185286,0,1535040042490926374,world,hand,-0.158923044801,0.071530431509,1.18846333027,0.0595516487956,0.0419853366911,-0.976724088192,-0.201744526625
1535040042575011625,0,1535040042490936736,world,checkerboard,2.42772841454,0.80051368475,1.5356041193,-0.37494340539,-0.6392172575,-0.599994540215,-0.301372498274
1535040042575027409,0,1535040042490941006,world,kinect2_mocap,0.104289472103,-1.32793939114,1.35414361954,-0.0319202840328,-0.00173822499346,0.0574873499572,-0.997834265232
1535040042580559878,0,1535040042580445563,kinect2_link,kinect2_rgb_optical_frame,0.0,0.0,0.0,0.0,0.0,0.0,1.0
1535040042580571522,0,1535040042580445563,kinect2_rgb_optical_frame,kinect2_ir_optical_frame,-0.0519399138017,0.00333959742795,0.00875866802314,-0.00453113942441,-0.00375492295549,0.00308026364555,0.999977940409
1535040042582481922,0,1535040042500259629,world,hand,-0.157195135951,0.0689020380378,1.19189786911,0.0634482577443,0.0461334958673,-0.97641825676,-0.201130643487
1535040042584547554,0,1535040042500270118,world,checkerboard,2.42773270607,0.800538778305,1.53560316563,-0.374953269958,-0.639162898064,-0.600042819977,-0.30137938261
1535040042584558062,0,1535040042500274389,world,kinect2_mocap,0.104291848838,-1.32793986797,1.35414254665,-0.031939946115,-0.00174116366543,0.0574814155698,-0.997834026814
1535040042594225959,0,1535040042510465532,world,hand,-0.155238077044,0.0660607069731,1.19487142563,0.0594620257616,0.0429899170995,-0.977104783058,-0.199705511332
1535040042596165904,0,1535040042590662027,kinect2_link,kinect2_rgb_optical_frame,0.0,0.0,0.0,0.0,0.0,0.0,1.0
1535040042596176864,0,1535040042590662027,kinect2_rgb_optical_frame,kinect2_ir_optical_frame,-0.0519399138017,0.00333959742795,0.00875866802314,-0.00453113942441,-0.00375492295549,0.00308026364555,0.999977940409
1535040042596521916,0,1535040042510475552,world,checkerboard,2.42774319649,0.800583422184,1.53557682037,-0.374934971333,-0.639248728752,-0.599971652031,-0.30136179924
1535040042596530495,0,1535040042510479944,world,kinect2_mocap,0.104294121265,-1.32794010639,1.35414171219,-0.031957603991,-0.0017437672941,0.0574765466154,-0.997833788395
1535040042600945247,0,1535040042600793544,kinect2_link,kinect2_rgb_optical_frame,0.0,0.0,0.0,0.0,0.0,0.0,1.0
1535040042600959360,0,1535040042600793544,kinect2_rgb_optical_frame,kinect2_ir_optical_frame,-0.0519399138017,0.00333959742795,0.00875866802314,-0.00453113942441,-0.00375492295549,0.00308026364555,0.999977940409
1535040042603014098,0,1535040042520698347,world,hand,-0.152917340398,0.0631494820118,1.19779610634,0.0535746179521,0.0399507433176,-0.977803230286,-0.198581472039
1535040042605446562,0,1535040042520707998,world,checkerboard,2.42777585983,0.80058246851,1.53556835651,-0.374948531389,-0.639163911343,-0.600005984306,-0.301456391811
1535040042605457427,0,1535040042520712121,world,kinect2_mocap,0.104296214879,-1.32794058323,1.35414087772,-0.0319764837623,-0.00174689199775,0.0574706792831,-0.997833430767
1535040042611206678,0,1535040042610916969,kinect2_link,kinect2_rgb_optical_frame,0.0,0.0,0.0,0.0,0.0,0.0,1.0
1535040042611221056,0,1535040042610916969,kinect2_rgb_optical_frame,kinect2_ir_optical_frame,-0.0519399138017,0.00333959742795,0.00875866802314,-0.00453113942441,-0.00375492295549,0.00308026364555,0.999977940409
1535040042613218230,0,1535040042530940251,world,hand,-0.150997579098,0.0600111559033,1.20146095753,0.0545971989632,0.0439522527158,-0.977885723114,-0.197045817971
1535040042615500280,0,1535040042530950014,world,checkerboard,2.42778801918,0.800569355488,1.53558111191,-0.374965727329,-0.639132618904,-0.600021719933,-0.301469922066
1535040042615514477,0,1535040042530954190,world,kinect2_mocap,0.104298382998,-1.32794106007,1.35414028168,-0.031993445009,-0.00174948282074,0.0574653707445,-0.997833192348
1535040042615518885,0,1535040042530961005,world,hand,-0.148775815964,0.0567164346576,1.20525300503,0.0561136901379,0.0485500097275,-0.977785468102,-0.196035221219
1535040042615523635,0,1535040042530964384,world,checkerboard,2.42778611183,0.800548970699,1.53559041023,-0.374953955412,-0.639115393162,-0.600022554398,-0.301519542933
1535040042615535277,0,1535040042530967777,world,kinect2_mocap,0.104300811887,-1.3279415369,1.35413968563,-0.0320114195347,-0.00175237108488,0.0574595741928,-0.99783295393
1535040042624353110,0,1535040042540203091,world,hand,-0.14656612277,0.0532793700695,1.20921313763,0.0562275350094,0.0528519265354,-0.977890908718,-0.194356843829
1535040042626507217,0,1535040042540217833,world,checkerboard,2.42776679993,0.800535857677,1.53560841084,-0.374985694885,-0.63908880949,-0.600026607513,-0.301528453827
1535040042626520614,0,1535040042540225564,world,kinect2_mocap,0.104303345084,-1.32794201374,1.35413908958,-0.0320306308568,-0.00175577122718,0.0574537850916,-0.997832715511
1535040042626677160,0,1535040042621026582,kinect2_link,kinect2_rgb_optical_frame,0.0,0.0,0.0,0.0,0.0,0.0,1.0
1535040042626687171,0,1535040042621026582,kinect2_rgb_optical_frame,kinect2_ir_optical_frame,-0.0519399138017,0.00333959742795,0.00875866802314,-0.00453113942441,-0.00375492295549,0.00308026364555,0.999977940409
1535040042632333931,0,1535040042670013504,/kinect2_mocap,/kinect2_link,0.0801417617159,0.0689299826583,-0.011685626472,-0.704332345391,-0.0271284587477,0.0479526774544,0.707729139351
1535040042632775813,0,1535040042550440890,world,hand,-0.144338160753,0.0498220846057,1.21234726906,0.0507760792971,0.0490622296929,-0.978869497776,-0.191909313202
1535040042632842516,0,1535040042632737987,kinect2_link,kinect2_rgb_optical_frame,0.0,0.0,0.0,0.0,0.0,0.0,1.0
1535040042632856786,0,1535040042632737987,kinect2_rgb_optical_frame,kinect2_ir_optical_frame,-0.0519399138017,0.00333959742795,0.00875866802314,-0.00453113942441,-0.00375492295549,0.00308026364555,0.999977940409
1535040042634864402,0,1535040042550451420,world,checkerboard,2.42778515816,0.800533056259,1.53563439846,-0.374963372946,-0.639075577259,-0.600080490112,-0.301477044821
1535040042634877372,0,1535040042550457633,world,kinect2_mocap,0.104305930436,-1.327942729,1.35413849354,-0.032046943903,-0.00175848510116,0.0574484802783,-0.997832477093
1535040042643059833,0,1535040042642834575,kinect2_link,kinect2_rgb_optical_frame,0.0,0.0,0.0,0.0,0.0,0.0,1.0
1535040042643077256,0,1535040042642834575,kinect2_rgb_optical_frame,kinect2_ir_optical_frame,-0.0519399138017,0.00333959742795,0.00875866802314,-0.00453113942441,-0.00375492295549,0.00308026364555,0.999977940409
1535040042643086397,0,1535040042560668018,world,hand,-0.142378509045,0.0463031977415,1.2160371542,0.0430084504187,0.0447048023343,-0.980376541615,-0.187119647861
1535040042645542659,0,1535040042560723345,world,checkerboard,2.42775821686,0.800516784191,1.53562963009,-0.374866127968,-0.63919198513,-0.600066483021,-0.301379084587
1535040042645561983,0,1535040042560733403,world,kinect2_mocap,0.104308433831,-1.32794344425,1.35413789749,-0.032063446939,-0.00176088383887,0.0574432872236,-0.997832238674
1535040042653410728,0,1535040042652939250,kinect2_link,kinect2_rgb_optical_frame,0.0,0.0,0.0,0.0,0.0,0.0,1.0
1535040042653425306,0,1535040042652939250,kinect2_rgb_optical_frame,kinect2_ir_optical_frame,-0.0519399138017,0.00333959742795,0.00875866802314,-0.00453113942441,-0.00375492295549,0.00308026364555,0.999977940409
1535040042653435181,0,1535040042570992617,world,hand,-0.139791488647,0.0426988862455,1.22038733959,0.0481808260083,0.0471757389605,-0.980053007603,-0.186947137117
1535040042655769532,0,1535040042571008016,world,checkerboard,2.42778778076,0.800518512726,1.5356348753,-0.374955713749,-0.639209330082,-0.60000705719,-0.301349103451
1535040042655787874,0,1535040042571014512,world,kinect2_mocap,0.104311041534,-1.32794415951,1.35413753986,-0.0320807248354,-0.00176360167097,0.0574377961457,-0.997832000256
1535040042663257751,0,1535040042663037042,kinect2_link,kinect2_rgb_optical_frame,0.0,0.0,0.0,0.0,0.0,0.0,1.0
1535040042663275791,0,1535040042663037042,kinect2_rgb_optical_frame,kinect2_ir_optical_frame,-0.0519399138017,0.00333959742795,0.00875866802314,-0.00453113942441,-0.00375492295549,0.00308026364555,0.999977940409
1535040042663573411,0,1535040042580395171,world,hand,-0.137376636267,0.039059560746,1.2247543335,0.0485653281212,0.046352095902,-0.980550885201,-0.184425830841
1535040042665841193,0,1535040042580513180,world,checkerboard,2.42779040337,0.800538301468,1.53564143181,-0.374858349562,-0.639165639877,-0.600112497807,-0.301352798939
1535040042665883818,0,1535040042580533725,world,kinect2_mocap,0.104313671589,-1.32794487476,1.35413718224,-0.032096773386,-0.00176618818659,0.0574326068163,-0.997831761837
1535040042665887451,0,1535040042580548653,world,hand,-0.135002478957,0.0353299379349,1.22917819023,0.0451812632382,0.0413994118571,-0.981463372707,-0.181588754058
1535040042665890720,0,1535040042580554679,world,checkerboard,2.42779326439,0.800529122353,1.53563308716,-0.37492364645,-0.639234900475,-0.60001128912,-0.301326185465
1535040042665894313,0,1535040042580559690,world,kinect2_mocap,0.104316309094,-1.3279453516,1.35413682461,-0.0321120917797,-0.00176864233799,0.0574271418154,-0.997831523418
1535040042673158959,0,1535040042590833147,world,hand,-0.132427588105,0.0317744612694,1.23460245132,0.0550044327974,0.0499081872404,-0.981166124344,-0.178316682577
1535040042673280483,0,1535040042673146574,kinect2_link,kinect2_rgb_optical_frame,0.0,0.0,0.0,0.0,0.0,0.0,1.0
1535040042673304199,0,1535040042673146574,kinect2_rgb_optical_frame,kinect2_ir_optical_frame,-0.0519399138017,0.00333959742795,0.00875866802314,-0.00453113942441,-0.00375492295549,0.00308026364555,0.999977940409
1535040042675114810,0,1535040042590861517,world,checkerboard,2.42781186104,0.800544261932,1.53562712669,-0.374904483557,-0.639204621315,-0.600016713142,-0.301403462887
1535040042675123036,0,1535040042590868447,world,kinect2_mocap,0.104319058359,-1.32794606686,1.35413646698,-0.032127097249,-0.00177119707223,0.0574223287404,-0.997831404209
1535040042682670853,0,1535040042600180608,world,hand,-0.130715578794,0.0283287577331,1.23925864697,0.0470036566257,0.0412995517254,-0.984095335007,-0.166257455945
1535040042684783120,0,1535040042600217569,world,checkerboard,2.42780780792,0.800530076027,1.53561162949,-0.375020116568,-0.639165043831,-0.599960565567,-0.301455229521
1535040042684808430,0,1535040042600225978,world,kinect2_mocap,0.104321748018,-1.32794654369,1.35413634777,-0.0321421027184,-0.0017738720635,0.0574175417423,-0.997831165791
1535040042685218132,0,1535040042683229518,kinect2_link,kinect2_rgb_optical_frame,0.0,0.0,0.0,0.0,0.0,0.0,1.0
1535040042690600476,0,1535040042683229518,kinect2_rgb_optical_frame,kinect2_ir_optical_frame,-0.0519399138017,0.00333959742795,0.00875866802314,-0.00453113942441,-0.00375492295549,0.00308026364555,0.999977940409
1535040042693127232,0,1535040042610741733,world,hand,-0.128079473972,0.0244824066758,1.24428927898,0.0444993041456,0.0365988127887,-0.984656155109,-0.164719954133
1535040042695069659,0,1535040042610772842,world,checkerboard,2.42779970169,0.800533592701,1.53559684753,-0.374968737364,-0.639156341553,-0.599994838238,-0.301469504833
1535040042695084622,0,1535040042610779201,world,kinect2_mocap,0.104324258864,-1.32794690132,1.35413599014,-0.0321568138897,-0.00177643238567,0.0574130415916,-0.997830927372
1535040042695369342,0,1535040042695213404,kinect2_link,kinect2_rgb_optical_frame,0.0,0.0,0.0,0.0,0.0,0.0,1.0
1535040042695391162,0,1535040042695213404,kinect2_rgb_optical_frame,kinect2_ir_optical_frame,-0.0519399138017,0.00333959742795,0.00875866802314,-0.00453113942441,-0.00375492295549,0.00308026364555,0.999977940409
1535040042702394603,0,1535040042620053899,world,hand,-0.124364331365,0.0201428774744,1.24975061417,0.04770007357,0.0368967987597,-0.983222901821,-0.172151595354
1535040042705511631,0,1535040042705306361,kinect2_link,kinect2_rgb_optical_frame,0.0,0.0,0.0,0.0,0.0,0.0,1.0
1535040042705521644,0,1535040042705306361,kinect2_rgb_optical_frame,kinect2_ir_optical_frame,-0.0519399138017,0.00333959742795,0.00875866802314,-0.00453113942441,-0.00375492295549,0.00308026364555,0.999977940409
1535040042706176573,0,1535040042620062863,world,checkerboard,2.42779564857,0.800544202328,1.53558123112,-0.374953240156,-0.639123857021,-0.600034892559,-0.301477998495
1535040042706188090,0,1535040042620067163,world,kinect2_mocap,0.104326561093,-1.32794702053,1.35413563251,-0.0321723781526,-0.00177936488762,0.0574083775282,-0.997830688953
1535040042712679070,0,1535040042630297680,world,hand,-0.121503256261,0.0159741193056,1.25516033173,0.044640917331,0.0330107994378,-0.983575880527,-0.171743944287
1535040042714669518,0,1535040042630309044,world,checkerboard,2.42778301239,0.80054628849,1.53555822372,-0.374944329262,-0.639140069485,-0.600037515163,-0.30144944787
1535040042714680917,0,1535040042630314045,world,kinect2_mocap,0.104328729212,-1.32794737816,1.35413527489,-0.0321875587106,-0.0017818872584,0.0574036426842,-0.997830450535
1535040042714685400,0,1535040042630347579,world,hand,-0.118411056697,0.0117789199576,1.26056575775,0.0405494533479,0.0298317186534,-0.984161138535,-0.169978961349
1535040042714691053,0,1535040042630352710,world,checkerboard,2.42778253555,0.800543546677,1.53554666042,-0.374899595976,-0.639212608337,-0.600006580353,-0.301412701607
1535040042714695712,0,1535040042630356601,world,kinect2_mocap,0.104330822825,-1.32794773579,1.35413467884,-0.0322029292583,-0.00178449007217,0.057398904115,-0.997830212116
1535040042719296680,0,1535040042715395870,kinect2_link,kinect2_rgb_optical_frame,0.0,0.0,0.0,0.0,0.0,0.0,1.0
1535040042719317086,0,1535040042715395870,kinect2_rgb_optical_frame,kinect2_ir_optical_frame,-0.0519399138017,0.00333959742795,0.00875866802314,-0.00453113942441,-0.00375492295549,0.00308026364555,0.999977940409
1535040042722973120,0,1535040042640720770,world,hand,-0.115627750754,0.0075215222314,1.26617181301,0.03571915254,0.0259744841605,-0.985096275806,-0.166237086058
1535040042725420636,0,1535040042640730318,world,checkerboard,2.42778134346,0.800523519516,1.5355527401,-0.374925851822,-0.639155030251,-0.600036799908,-0.301441937685
1535040042725448818,0,1535040042640734526,world,kinect2_mocap,0.104333020747,-1.32794809341,1.35413408279,-0.0322183743119,-0.00178668287117,0.0573945082724,-0.997829973698
1535040042726428889,0,1535040042726065525,kinect2_link,kinect2_rgb_optical_frame,0.0,0.0,0.0,0.0,0.0,0.0,1.0
1535040042726453147,0,1535040042726065525,kinect2_rgb_optical_frame,kinect2_ir_optical_frame,-0.0519399138017,0.00333959742795,0.00875866802314,-0.00453113942441,-0.00375492295549,0.00308026364555,0.999977940409
1535040042733317401,0,1535040042650994482,world,hand,-0.112344004214,0.00319634657353,1.27187669277,0.0325266048312,0.024456448853,-0.98562091589,-0.163997799158
1535040042735368096,0,1535040042651003822,world,checkerboard,2.42776751518,0.800539791584,1.53555715084,-0.374861031771,-0.639190495014,-0.600069522858,-0.301382392645
1535040042735383529,0,1535040042651007997,world,kinect2_mocap,0.104335077107,-1.32794821262,1.35413348675,-0.0322318039834,-0.00178864761256,0.0573909394443,-0.997829735279
1535040042736352683,0,1535040042736190416,kinect2_link,kinect2_rgb_optical_frame,0.0,0.0,0.0,0.0,0.0,0.0,1.0
1535040042736387801,0,1535040042736190416,kinect2_rgb_optical_frame,kinect2_ir_optical_frame,-0.0519399138017,0.00333959742795,0.00875866802314,-0.00453113942441,-0.00375492295549,0.00308026364555,0.999977940409
1535040042742588021,0,1535040042660254436,world,hand,-0.109027199447,-0.00121716514695,1.27778589725,0.0296447779983,0.021843072027,-0.986180186272,-0.161532521248
1535040042745081769,0,1535040042660264106,world,checkerboard,2.42776155472,0.800543785095,1.53556835651,-0.37487539649,-0.639225780964,-0.60002374649,-0.301380902529
1535040042745094440,0,1535040042660415194,world,kinect2_mocap,0.104336977005,-1.32794833183,1.35413312912,-0.0322462320328,-0.00179090560414,0.0573872551322,-0.997829496861
1535040042746418490,0,1535040042746287953,kinect2_link,kinect2_rgb_optical_frame,0.0,0.0,0.0,0.0,0.0,0.0,1.0
1535040042746444120,0,1535040042746287953,kinect2_rgb_optical_frame,kinect2_ir_optical_frame,-0.0519399138017,0.00333959742795,0.00875866802314,-0.00453113942441,-0.00375492295549,0.00308026364555,0.999977940409
1535040042752492871,0,1535040042790129156,/kinect2_mocap,/kinect2_link,0.0801417617159,0.0689299826583,-0.011685626472,-0.704332345391,-0.0271284587477,0.0479526774544,0.707729139351
1535040042753021288,0,1535040042670694438,world,hand,-0.105601869524,-0.00563808670267,1.2838293314,0.0282670874149,0.0198740437627,-0.986761510372,-0.158454731107
1535040042755187094,0,1535040042670703260,world,checkerboard,2.42775678635,0.800525844097,1.53560853004,-0.37492364645,-0.639144539833,-0.600044727325,-0.301451176405
1535040042755212110,0,1535040042670707255,world,kinect2_mocap,0.10433870554,-1.32794821262,1.35413277149,-0.0322603397071,-0.0017925807042,0.0573834814131,-0.997829258442
1535040042759265334,0,1535040042756374670,kinect2_link,kinect2_rgb_optical_frame,0.0,0.0,0.0,0.0,0.0,0.0,1.0
1535040042759283307,0,1535040042756374670,kinect2_rgb_optical_frame,kinect2_ir_optical_frame,-0.0519399138017,0.00333959742795,0.00875866802314,-0.00453113942441,-0.00375492295549,0.00308026364555,0.999977940409
1535040042762399216,0,1535040042679990649,world,hand,-0.102234520018,-0.0100551787764,1.28986310959,0.0232748966664,0.0144333206117,-0.987691044807,-0.154001191258
1535040042764367698,0,1535040042680022342,world,checkerboard,2.42771744728,0.800515830517,1.5356118679,-0.374856323004,-0.639237821102,-0.60006159544,-0.301303863525
1535040042764381351,0,1535040042680029103,world,kinect2_mocap,0.104338474572,-1.32794809341,1.35413336754,-0.0322529748082,-0.00179143180139,0.0573867037892,-0.997829377651
1535040042764393911,0,1535040042680038028,world,hand,-0.0984875187278,-0.0144234737381,1.29620194435,0.0207337699831,0.0130488025025,-0.988236188889,-0.150960981846
1535040042764399536,0,1535040042680043373,world,checkerboard,2.42773556709,0.80053204298,1.53560996056,-0.374918580055,-0.639134466648,-0.600113689899,-0.301341891289
1535040042764468382,0,1535040042680048338,world,kinect2_mocap,0.104340098798,-1.32794797421,1.35413300991,-0.0322647467256,-0.00179254298564,0.0573833212256,-0.997829139233
1535040042766648923,0,1535040042766505465,kinect2_link,kinect2_rgb_optical_frame,0.0,0.0,0.0,0.0,0.0,0.0,1.0
1535040042766660133,0,1535040042766505465,kinect2_rgb_optical_frame,kinect2_ir_optical_frame,-0.0519399138017,0.00333959742795,0.00875866802314,-0.00453113942441,-0.00375492295549,0.00308026364555,0.999977940409
1535040042772717922,0,1535040042690340339,world,hand,-0.0951730757952,-0.0185613501817,1.3027009964,0.0171327572316,0.00657652504742,-0.989567935467,-0.142893731594
1535040042775129346,0,1535040042690384644,world,checkerboard,2.42776966095,0.800534665585,1.53557503223,-0.374953776598,-0.639186918736,-0.600033283234,-0.301346719265
1535040042775138276,0,1535040042690392337,world,kinect2_mocap,0.104341499507,-1.32794809341,1.35413265228,-0.0322777405381,-0.00179376872256,0.0573798641562,-0.997828900814
1535040042776785458,0,1535040042776582051,kinect2_link,kinect2_rgb_optical_frame,0.0,0.0,0.0,0.0,0.0,0.0,1.0
1535040042776801106,0,1535040042776582051,kinect2_rgb_optical_frame,kinect2_ir_optical_frame,-0.0519399138017,0.00333959742795,0.00875866802314,-0.00453113942441,-0.00375492295549,0.00308026364555,0.999977940409
1535040042782907035,0,1535040042700668754,world,hand,-0.0908121913671,-0.0232272967696,1.30951368809,0.0175527501851,0.00357933435589,-0.989305198193,-0.144756525755
1535040042785237859,0,1535040042700699928,world,checkerboard,2.42777967453,0.800557374954,1.53558146954,-0.374937206507,-0.639112174511,-0.600089371204,-0.30141428113
1535040042785252083,0,1535040042700707011,world,kinect2_mocap,0.10434088856,-1.32794773579,1.3541328907,-0.0322704017162,-0.00179208419286,0.0573827624321,-0.997829020023
1535040042793242491,0,1535040042710975058,world,hand,-0.0865271687508,-0.0276888422668,1.3165397644,0.0149352420121,0.00137199426536,-0.989754319191,-0.141991198063
1535040042793418812,0,1535040042786669996,kinect2_link,kinect2_rgb_optical_frame,0.0,0.0,0.0,0.0,0.0,0.0,1.0
1535040042793431010,0,1535040042786669996,kinect2_rgb_optical_frame,kinect2_ir_optical_frame,-0.0519399138017,0.00333959742795,0.00875866802314,-0.00453113942441,-0.00375492295549,0.00308026364555,0.999977940409
1535040042795333730,0,1535040042711014095,world,checkerboard,2.42775082588,0.800555706024,1.53560864925,-0.374897152185,-0.639135420322,-0.60005646944,-0.301480203867
1535040042795351289,0,1535040042711022377,world,kinect2_mocap,0.104340046644,-1.32794713974,1.35413312912,-0.0322609134018,-0.00179017265327,0.057386405766,-0.997829139233
1535040042799323317,0,1535040042799165592,kinect2_link,kinect2_rgb_optical_frame,0.0,0.0,0.0,0.0,0.0,0.0,1.0
1535040042799338090,0,1535040042799165592,kinect2_rgb_optical_frame,kinect2_ir_optical_frame,-0.0519399138017,0.00333959742795,0.00875866802314,-0.00453113942441,-0.00375492295549,0.00308026364555,0.999977940409
1535040042802515660,0,1535040042720302426,world,hand,-0.0823920443654,-0.0319920405746,1.32341742516,0.0122669907287,-0.00672997813672,-0.990273594856,-0.138429000974
1535040042804730284,0,1535040042720330752,world,checkerboard,2.4277575016,0.800568938255,1.53560233116,-0.374897032976,-0.639165401459,-0.600069284439,-0.301391214132
1535040042804740315,0,1535040042720337536,world,kinect2_mocap,0.10433870554,-1.32794606686,1.35413360596,-0.03225184232,-0.00178754073568,0.0573894269764,-0.997829258442
1535040042809562015,0,1535040042809259891,kinect2_link,kinect2_rgb_optical_frame,0.0,0.0,0.0,0.0,0.0,0.0,1.0
1535040042809573819,0,1535040042809259891,kinect2_rgb_optical_frame,kinect2_ir_optical_frame,-0.0519399138017,0.00333959742795,0.00875866802314,-0.00453113942441,-0.00375492295549,0.00308026364555,0.999977940409
1535040042812916448,0,1535040042730645028,world,hand,-0.0789211466908,-0.0361771546304,1.33062887192,0.00181786972098,-0.0136825302616,-0.991512596607,-0.129276007414
1535040042815435642,0,1535040042730677032,world,checkerboard,2.42776703835,0.800544798374,1.53557705879,-0.374940127134,-0.639154791832,-0.600044250488,-0.301410079002
1535040042815457874,0,1535040042730685188,world,kinect2_mocap,0.104337491095,-1.32794523239,1.35413408279,-0.0322427302599,-0.00178493943531,0.0573921576142,-0.997829377651
1535040042815464791,0,1535040042730695983,world,hand,-0.0733176544309,-0.041073936969,1.33812332153,0.0104236835614,-0.0155221270397,-0.990192115307,-0.138456389308
1535040042815471198,0,1535040042730700980,world,checkerboard,2.42773222923,0.80056220293,1.53554677963,-0.374898195267,-0.639275431633,-0.599992871284,-0.301308631897
1535040042815476519,0,1535040042730705915,world,kinect2_mocap,0.104336552322,-1.32794451714,1.35413455963,-0.0322341546416,-0.00178248505108,0.0573945827782,-0.997829496861
1535040042819653491,0,1535040042819365463,kinect2_link,kinect2_rgb_optical_frame,0.0,0.0,0.0,0.0,0.0,0.0,1.0
1535040042819672180,0,1535040042819365463,kinect2_rgb_optical_frame,kinect2_ir_optical_frame,-0.0519399138017,0.00333959742795,0.00875866802314,-0.00453113942441,-0.00375492295549,0.00308026364555,0.999977940409
1535040042823530206,0,1535040042741082314,world,hand,-0.0692301020026,-0.0451423674822,1.34522223473,0.00138172076549,-0.0238838493824,-0.991220474243,-0.130037426949
1535040042827020041,0,1535040042741139863,world,checkerboard,2.427724123,0.800549268723,1.5355386734,-0.374959617853,-0.63922637701,-0.600004911423,-0.301312327385
1535040042827038853,0,1535040042741150444,world,kinect2_mocap,0.10433600843,-1.32794427872,1.35413479805,-0.0322256200016,-0.001780233928,0.0573971383274,-0.99782961607
1535040042829745355,0,1535040042829509389,kinect2_link,kinect2_rgb_optical_frame,0.0,0.0,0.0,0.0,0.0,0.0,1.0
1535040042829759187,0,1535040042829509389,kinect2_rgb_optical_frame,kinect2_ir_optical_frame,-0.0519399138017,0.00333959742795,0.00875866802314,-0.00453113942441,-0.00375492295549,0.00308026364555,0.999977940409
1535040042832770294,0,1535040042750357325,world,hand,-0.0651440024376,-0.049356136471,1.35246837139,-0.00529107823968,-0.0319096073508,-0.991788387299,-0.123732089996
1535040042834894763,0,1535040042750387459,world,checkerboard,2.42772769928,0.800574064255,1.53555965424,-0.374977499247,-0.639175951481,-0.600016236305,-0.30137437582
1535040042834905206,0,1535040042750395345,world,kinect2_mocap,0.104335598648,-1.3279440403,1.35413503647,-0.0322189964354,-0.0017785349628,0.0573996156454,-0.997829735279
1535040042839684882,0,1535040042839600652,kinect2_link,kinect2_rgb_optical_frame,0.0,0.0,0.0,0.0,0.0,0.0,1.0
1535040042839692711,0,1535040042839600652,kinect2_rgb_optical_frame,kinect2_ir_optical_frame,-0.0519399138017,0.00333959742795,0.00875866802314,-0.00453113942441,-0.00375492295549,0.00308026364555,0.999977940409
1535040042842942458,0,1535040042760736235,world,hand,-0.0605584941804,-0.0539119057357,1.36020457745,-0.00644335476682,-0.0343970917165,-0.991615593433,-0.124393962324
1535040042845467904,0,1535040042760770824,world,checkerboard,2.42773890495,0.800561308861,1.53556895256,-0.374996036291,-0.639104902744,-0.600041925907,-0.301450848579
1535040042845480226,0,1535040042760779421,world,kinect2_mocap,0.104337103665,-1.32794380188,1.35413479805,-0.0322320014238,-0.00178003823385,0.0573951974511,-0.997829496861
1535040042849892665,0,1535040042849671699,kinect2_link,kinect2_rgb_optical_frame,0.0,0.0,0.0,0.0,0.0,0.0,1.0
1535040042849912537,0,1535040042849671699,kinect2_rgb_optical_frame,kinect2_ir_optical_frame,-0.0519399138017,0.00333959742795,0.00875866802314,-0.00453113942441,-0.00375492295549,0.00308026364555,0.999977940409
1535040042853397864,0,1535040042771012717,world,hand,-0.055884167552,-0.0587313398719,1.36731660366,-0.0138988131657,-0.047904137522,-0.990456998348,-0.128479763865
1535040042855517408,0,1535040042771022345,world,checkerboard,2.42774558067,0.800563275814,1.53557026386,-0.374983489513,-0.639226257801,-0.599972724915,-0.301346808672
1535040042855530392,0,1535040042771027122,world,kinect2_mocap,0.104338601232,-1.32794356346,1.35413479805,-0.0322455726564,-0.00178154464811,0.0573903359473,-0.997829377651
1535040042855537062,0,1535040042771080191,world,hand,-0.0518624708056,-0.0627631917596,1.37539601326,-0.00952289067209,-0.043042331934,-0.99184513092,-0.119582936168
1535040042855542670,0,1535040042771085629,world,checkerboard,2.42777442932,0.800568521023,1.53554940224,-0.374964803457,-0.639207422733,-0.59998780489,-0.301380217075
1535040042855547063,0,1535040042771089057,world,kinect2_mocap,0.10434050858,-1.32794356346,1.35413479805,-0.0322584211826,-0.00178332184441,0.0573860816658,-0.997829258442
1535040042860022264,0,1535040042859754151,kinect2_link,kinect2_rgb_optical_frame,0.0,0.0,0.0,0.0,0.0,0.0,1.0
