%time,field.transforms0.header.seq,field.transforms0.header.stamp,field.transforms0.header.frame_id,field.transforms0.child_frame_id,field.transforms0.transform.translation.x,field.transforms0.transform.translation.y,field.transforms0.transform.translation.z,field.transforms0.transform.rotation.x,field.transforms0.transform.rotation.y,field.transforms0.transform.rotation.z,field.transforms0.transform.rotation.w
1535040267260103138,0,1535040267259940495,kinect2_link,kinect2_rgb_optical_frame,0.0,0.0,0.0,0.0,0.0,0.0,1.0
1535040267260123442,0,1535040267259940495,kinect2_rgb_optical_frame,kinect2_ir_optical_frame,-0.0519399138017,0.00333959742795,0.00875866802314,-0.00453113942441,-0.00375492295549,0.00308026364555,0.999977940409
1535040267265169159,0,1535040267180316803,world,hand,0.177180618048,0.0925331711769,1.52746403217,0.11880376935,-0.189984709024,-0.973546206951,-0.0447141006589
1535040267267267525,0,1535040267180327480,world,checkerboard,2.42774486542,0.800522565842,1.53545582294,-0.374999493361,-0.63915604353,-0.599990785122,-0.301439881325
1535040267267278342,0,1535040267180332074,world,kinect2_mocap,0.104180723429,-1.32797241211,1.35416412354,-0.0321590863168,-0.00165215297602,0.0574998632073,-0.997826039791
1535040267270228932,0,1535040267270051145,kinect2_link,kinect2_rgb_optical_frame,0.0,0.0,0.0,0.0,0.0,0.0,1.0
1535040267270238047,0,1535040267270051145,kinect2_rgb_optical_frame,kinect2_ir_optical_frame,-0.0519399138017,0.00333959742795,0.00875866802314,-0.00453113942441,-0.00375492295549,0.00308026364555,0.999977940409
1535040267275346980,0,1535040267190598303,world,hand,0.183130964637,0.092650488019,1.52538263798,0.116057127714,-0.18835221231,-0.974481761456,-0.0379408746958
1535040267277372474,0,1535040267190608613,world,checkerboard,2.42774152756,0.800517678261,1.53545665741,-0.374949753284,-0.639118909836,-0.60006326437,-0.301436305046
1535040267277380603,0,1535040267190613619,world,kinect2_mocap,0.104181207716,-1.32797265053,1.35416507721,-0.0321725644171,-0.00165242364164,0.0574974752963,-0.997825801373
1535040267277385810,0,1535040267190640706,world,hand,0.188906162977,0.0927981063724,1.52310967445,0.115025229752,-0.187220916152,-0.975050985813,-0.0315144993365
1535040267277410310,0,1535040267190644765,world,checkerboard,2.42775702477,0.800514101982,1.53544270992,-0.37498357892,-0.639188885689,-0.599994122982,-0.301383554935
1535040267277442931,0,1535040267190648245,world,kinect2_mocap,0.104181677103,-1.32797288895,1.35416603088,-0.0321864821017,-0.00165273807943,0.057495135814,-0.997825443745
1535040267280381305,0,1535040267280139453,kinect2_link,kinect2_rgb_optical_frame,0.0,0.0,0.0,0.0,0.0,0.0,1.0
1535040267280401063,0,1535040267280139453,kinect2_rgb_optical_frame,kinect2_ir_optical_frame,-0.0519399138017,0.00333959742795,0.00875866802314,-0.00453113942441,-0.00375492295549,0.00308026364555,0.999977940409
1535040267285716553,0,1535040267200903662,world,hand,0.194228604436,0.0930343493819,1.52095007896,0.112798966467,-0.185782104731,-0.975760579109,-0.0255513004959
1535040267287874492,0,1535040267201011935,world,checkerboard,2.42773342133,0.800529003143,1.53542625904,-0.374976813793,-0.639246940613,-0.599943578243,-0.301369518042
1535040267287921398,0,1535040267201020603,world,kinect2_mocap,0.104181997478,-1.32797312737,1.35416698456,-0.0322007313371,-0.00165262038354,0.0574926137924,-0.997825205326
1535040267292913292,0,1535040267290413776,kinect2_link,kinect2_rgb_optical_frame,0.0,0.0,0.0,0.0,0.0,0.0,1.0
1535040267292955075,0,1535040267290413776,kinect2_rgb_optical_frame,kinect2_ir_optical_frame,-0.0519399138017,0.00333959742795,0.00875866802314,-0.00453113942441,-0.00375492295549,0.00308026364555,0.999977940409
1535040267295209146,0,1535040267210309684,world,hand,0.199102923274,0.0933669731021,1.51876723766,0.110855832696,-0.185661882162,-0.976133525372,-0.0201012417674
1535040267297831250,0,1535040267210343265,world,checkerboard,2.42771291733,0.800502181053,1.53542435169,-0.374967992306,-0.639229893684,-0.599952757359,-0.301398068666
1535040267297845700,0,1535040267210351107,world,kinect2_mocap,0.104182392359,-1.32797336578,1.35416769981,-0.0322162806988,-0.00165281014051,0.057490374893,-0.997824847698
1535040267300714178,0,1535040267300498418,kinect2_link,kinect2_rgb_optical_frame,0.0,0.0,0.0,0.0,0.0,0.0,1.0
1535040267300730780,0,1535040267300498418,kinect2_rgb_optical_frame,kinect2_ir_optical_frame,-0.0519399138017,0.00333959742795,0.00875866802314,-0.00453113942441,-0.00375492295549,0.00308026364555,0.999977940409
1535040267305470488,0,1535040267220668192,world,hand,0.203758791089,0.0937337204814,1.51671373844,0.107711210847,-0.185196071863,-0.976667404175,-0.014883284457
1535040267307422116,0,1535040267220698415,world,checkerboard,2.42773723602,0.800504148006,1.53543376923,-0.37494006753,-0.639160633087,-0.600028634071,-0.301428735256
1535040267307435344,0,1535040267220735672,world,kinect2_mocap,0.104182675481,-1.3279736042,1.35416865349,-0.0322291180491,-0.00165268371347,0.0574884228408,-0.99782449007
1535040267310751283,0,1535040267310619011,kinect2_link,kinect2_rgb_optical_frame,0.0,0.0,0.0,0.0,0.0,0.0,1.0
1535040267310763125,0,1535040267310619011,kinect2_rgb_optical_frame,kinect2_ir_optical_frame,-0.0519399138017,0.00333959742795,0.00875866802314,-0.00453113942441,-0.00375492295549,0.00308026364555,0.999977940409
1535040267315742048,0,1535040267230931130,world,hand,0.207878932357,0.0940663516521,1.5145676136,0.105323009193,-0.184504851699,-0.977132201195,-0.00881190784276
1535040267318055533,0,1535040267230961235,world,checkerboard,2.42774009705,0.80051189661,1.5354155302,-0.375021219254,-0.639159440994,-0.599981665611,-0.301423847675
1535040267318066149,0,1535040267230972093,world,kinect2_mocap,0.104183033109,-1.32797384262,1.35416960716,-0.032241653651,-0.00165252655279,0.0574861764908,-0.997824251652
1535040267322418914,0,1535040267320681610,kinect2_link,kinect2_rgb_optical_frame,0.0,0.0,0.0,0.0,0.0,0.0,1.0
1535040267322429610,0,1535040267320681610,kinect2_rgb_optical_frame,kinect2_ir_optical_frame,-0.0519399138017,0.00333959742795,0.00875866802314,-0.00453113942441,-0.00375492295549,0.00308026364555,0.999977940409
1535040267325137540,0,1535040267240255272,world,hand,0.211715683341,0.09464161098,1.51269233227,0.105617634952,-0.18708871305,-0.976645648479,-0.00247834180482
1535040267327737840,0,1535040267240269066,world,checkerboard,2.42773795128,0.800515413284,1.53542232513,-0.374985903502,-0.639149367809,-0.600024223328,-0.301404625177
1535040267327781369,0,1535040267240274130,world,kinect2_mocap,0.104183375835,-1.32797408104,1.35417079926,-0.032254319638,-0.00165252527222,0.0574838705361,-0.997823894024
1535040267327792113,0,1535040267240281347,world,hand,0.21491856873,0.0948953926563,1.51048922539,0.0999945700169,-0.184592083097,-0.977714717388,-0.000880741514266
1535040267327800492,0,1535040267240284684,world,checkerboard,2.42772865295,0.800519585609,1.53542327881,-0.374993443489,-0.639098644257,-0.60004979372,-0.301451712847
1535040267327917842,0,1535040267240288094,world,kinect2_mocap,0.104183062911,-1.32797455788,1.35417127609,-0.0322497934103,-0.0016514970921,0.0574841313064,-0.997824132442
1535040267331827516,0,1535040267330796367,kinect2_link,kinect2_rgb_optical_frame,0.0,0.0,0.0,0.0,0.0,0.0,1.0
1535040267331841455,0,1535040267330796367,kinect2_rgb_optical_frame,kinect2_ir_optical_frame,-0.0519399138017,0.00333959742795,0.00875866802314,-0.00453113942441,-0.00375492295549,0.00308026364555,0.999977940409
1535040267335460719,0,1535040267250490173,world,hand,0.21775367856,0.0954058989882,1.50846242905,0.101193293929,-0.185497105122,-0.977407038212,0.00513762095943
1535040267337809531,0,1535040267250503236,world,checkerboard,2.42776584625,0.800530672073,1.53542864323,-0.374994307756,-0.639065146446,-0.600105285645,-0.301411181688
1535040267337817372,0,1535040267250509065,world,kinect2_mocap,0.104182720184,-1.32797503471,1.35417175293,-0.0322462618351,-0.00165125611238,0.0574844889343,-0.997824132442
1535040267339588520,0,1535040267374637693,/kinect2_mocap,/kinect2_link,0.0801417617159,0.0689299826583,-0.011685626472,-0.704332345391,-0.0271284587477,0.0479526774544,0.707729139351
1535040267341041218,0,1535040267340901263,kinect2_link,kinect2_rgb_optical_frame,0.0,0.0,0.0,0.0,0.0,0.0,1.0
1535040267341052234,0,1535040267340901263,kinect2_rgb_optical_frame,kinect2_ir_optical_frame,-0.0519399138017,0.00333959742795,0.00875866802314,-0.00453113942441,-0.00375492295549,0.00308026364555,0.999977940409
1535040267345530953,0,1535040267260747871,world,hand,0.220038756728,0.0957132279873,1.50634264946,0.0964363366365,-0.183221980929,-0.978307366371,0.00666184024885
1535040267347737783,0,1535040267260754950,world,checkerboard,2.42776727676,0.800530016422,1.53542852402,-0.374924004078,-0.639034569263,-0.60017812252,-0.301418572664
1535040267347789013,0,1535040267260759058,world,kinect2_mocap,0.104182362556,-1.32797527313,1.35417222977,-0.032245118171,-0.00165116274729,0.0574842840433,-0.997824251652
1535040267352117281,0,1535040267350977612,kinect2_link,kinect2_rgb_optical_frame,0.0,0.0,0.0,0.0,0.0,0.0,1.0
1535040267354794882,0,1535040267270005044,world,hand,0.221807926893,0.0962311550975,1.50450849533,0.0974172279239,-0.1852427423,-0.97777736187,0.0121078193188
1535040267357488210,0,1535040267270040950,world,checkerboard,2.42776703835,0.800535619259,1.53543150425,-0.374904811382,-0.638954937458,-0.600245893002,-0.301476031542
1535040267357512965,0,1535040267270048808,world,kinect2_mocap,0.104182913899,-1.32797527313,1.35417366028,-0.0322564505041,-0.00165109150112,0.057481855154,-0.997824013233
1535040267357969701,0,1535040267350977612,kinect2_rgb_optical_frame,kinect2_ir_optical_frame,-0.0519399138017,0.00333959742795,0.00875866802314,-0.00453113942441,-0.00375492295549,0.00308026364555,0.999977940409
1535040267362256692,0,1535040267362076410,kinect2_link,kinect2_rgb_optical_frame,0.0,0.0,0.0,0.0,0.0,0.0,1.0
1535040267362397834,0,1535040267362076410,kinect2_rgb_optical_frame,kinect2_ir_optical_frame,-0.0519399138017,0.00333959742795,0.00875866802314,-0.00453113942441,-0.00375492295549,0.00308026364555,0.999977940409
1535040267365352831,0,1535040267280270680,world,hand,0.223030000925,0.0964118540287,1.50241303444,0.0933342576027,-0.183057367802,-0.978577435017,0.0128431543708
1535040267367974805,0,1535040267280299994,world,checkerboard,2.42777323723,0.800538122654,1.53542935848,-0.374920189381,-0.639073908329,-0.600145161152,-0.301405370235
1535040267367984617,0,1535040267280307505,world,kinect2_mocap,0.104183331132,-1.32797527313,1.35417509079,-0.0322685576975,-0.00165129394736,0.0574792176485,-0.997823774815
1535040267372380430,0,1535040267372188165,kinect2_link,kinect2_rgb_optical_frame,0.0,0.0,0.0,0.0,0.0,0.0,1.0
1535040267372391982,0,1535040267372188165,kinect2_rgb_optical_frame,kinect2_ir_optical_frame,-0.0519399138017,0.00333959742795,0.00875866802314,-0.00453113942441,-0.00375492295549,0.00308026364555,0.999977940409
1535040267375663062,0,1535040267290653988,world,hand,0.223776817322,0.0967320948839,1.50062084198,0.0941874533892,-0.1841070503,-0.978255391121,0.0158049091697
1535040267378056608,0,1535040267290665189,world,checkerboard,2.4277575016,0.800500929356,1.53545117378,-0.374984711409,-0.639022469521,-0.600116372108,-0.301491707563
1535040267378074239,0,1535040267290671282,world,kinect2_mocap,0.104183644056,-1.32797527313,1.35417628288,-0.0322800800204,-0.00165105960332,0.0574772171676,-0.997823536396
1535040267378079738,0,1535040267290680168,world,hand,0.224144652486,0.0971038490534,1.49858820438,0.093964651227,-0.183926522732,-0.978249311447,0.0192392487079
1535040267378083629,0,1535040267290685094,world,checkerboard,2.42776441574,0.800510466099,1.53544533253,-0.375024884939,-0.639183819294,-0.599963903427,-0.30140286684
1535040267378087523,0,1535040267290689288,world,kinect2_mocap,0.104183889925,-1.32797527313,1.35417747498,-0.0322911702096,-0.00165134912822,0.0574752315879,-0.997823297977
1535040267382438438,0,1535040267382262278,kinect2_link,kinect2_rgb_optical_frame,0.0,0.0,0.0,0.0,0.0,0.0,1.0
1535040267382448131,0,1535040267382262278,kinect2_rgb_optical_frame,kinect2_ir_optical_frame,-0.0519399138017,0.00333959742795,0.00875866802314,-0.00453113942441,-0.00375492295549,0.00308026364555,0.999977940409
1535040267385910220,0,1535040267300984502,world,hand,0.223809361458,0.0971759483218,1.49687933922,0.0921651497483,-0.183406665921,-0.978500247002,0.0201237350702
1535040267388110424,0,1535040267300998084,world,checkerboard,2.42775416374,0.800493001938,1.53544104099,-0.375000357628,-0.639261007309,-0.599943935871,-0.301309496164
1535040267388123241,0,1535040267301002629,world,kinect2_mocap,0.10418407619,-1.32797527313,1.35417866707,-0.0323036685586,-0.0016516642645,0.057473026216,-0.99782294035
1535040267392527822,0,1535040267392342819,kinect2_link,kinect2_rgb_optical_frame,0.0,0.0,0.0,0.0,0.0,0.0,1.0
1535040267392539026,0,1535040267392342819,kinect2_rgb_optical_frame,kinect2_ir_optical_frame,-0.0519399138017,0.00333959742795,0.00875866802314,-0.00453113942441,-0.00375492295549,0.00308026364555,0.999977940409
1535040267394982846,0,1535040267310228867,world,hand,0.223085939884,0.0971674323082,1.49471187592,0.0921250656247,-0.181971490383,-0.978765249252,0.0204457547516
1535040267398501084,0,1535040267310238626,world,checkerboard,2.42776727676,0.800501585007,1.5354578495,-0.375005930662,-0.639152467251,-0.59998857975,-0.30144405365
1535040267398514972,0,1535040267310242927,world,kinect2_mocap,0.104184158146,-1.32797551155,1.35417962074,-0.0323143899441,-0.00165170733817,0.0574714280665,-0.997822701931
1535040267402744204,0,1535040267402460600,kinect2_link,kinect2_rgb_optical_frame,0.0,0.0,0.0,0.0,0.0,0.0,1.0
1535040267402752092,0,1535040267402460600,kinect2_rgb_optical_frame,kinect2_ir_optical_frame,-0.0519399138017,0.00333959742795,0.00875866802314,-0.00453113942441,-0.00375492295549,0.00308026364555,0.999977940409
1535040267405202707,0,1535040267320443875,world,hand,0.221824407578,0.0970495641232,1.49275076389,0.0892813503742,-0.179039239883,-0.979571819305,0.0203215051442
1535040267407692908,0,1535040267320454616,world,checkerboard,2.42775893211,0.800482571125,1.53545749187,-0.375071525574,-0.639224410057,-0.599872350693,-0.301440984011
1535040267407701679,0,1535040267320459085,world,kinect2_mocap,0.104184105992,-1.32797574997,1.35418057442,-0.0323261022568,-0.00165212294087,0.0574696213007,-0.997822463512
1535040267412906278,0,1535040267412597216,kinect2_link,kinect2_rgb_optical_frame,0.0,0.0,0.0,0.0,0.0,0.0,1.0
1535040267412923647,0,1535040267412597216,kinect2_rgb_optical_frame,kinect2_ir_optical_frame,-0.0519399138017,0.00333959742795,0.00875866802314,-0.00453113942441,-0.00375492295549,0.00308026364555,0.999977940409
1535040267415518923,0,1535040267330704718,world,hand,0.220137655735,0.097048483789,1.49069750309,0.088845230639,-0.17821200192,-0.979760944843,0.0203838590533
1535040267417426164,0,1535040267330715567,world,checkerboard,2.42774152756,0.800489485264,1.53548252583,-0.375056415796,-0.639134168625,-0.599956393242,-0.301484048367
1535040267417434337,0,1535040267330720690,world,kinect2_mocap,0.104182839394,-1.32797789574,1.35418152809,-0.0323332063854,-0.00165185413789,0.0574689134955,-0.997822225094
1535040267423733216,0,1535040267422714845,kinect2_link,kinect2_rgb_optical_frame,0.0,0.0,0.0,0.0,0.0,0.0,1.0
1535040267423744725,0,1535040267422714845,kinect2_rgb_optical_frame,kinect2_ir_optical_frame,-0.0519399138017,0.00333959742795,0.00875866802314,-0.00453113942441,-0.00375492295549,0.00308026364555,0.999977940409
1535040267425976788,0,1535040267341012550,world,hand,0.218158751726,0.096968986094,1.48878884315,0.0910391360521,-0.178470611572,-0.979512989521,0.0203575734049
1535040267428279276,0,1535040267341024311,world,checkerboard,2.42775583267,0.800521373749,1.53548276424,-0.375024855137,-0.639152705669,-0.59996765852,-0.301461309195
1535040267428299340,0,1535040267341050981,world,kinect2_mocap,0.104181684554,-1.3279800415,1.35418272018,-0.0323402062058,-0.00165201362688,0.0574679300189,-0.997822105885
1535040267428303292,0,1535040267341062134,world,hand,0.215817704797,0.0967971161008,1.48659169674,0.087592817843,-0.176964372396,-0.980124592781,0.0191555339843
1535040267428323801,0,1535040267341066713,world,checkerboard,2.42771410942,0.800516188145,1.53549861908,-0.375029087067,-0.639127194881,-0.600020825863,-0.301404595375
1535040267428333303,0,1535040267341071019,world,kinect2_mocap,0.104181036353,-1.32798027992,1.3541829586,-0.0323349125683,-0.00165174761787,0.0574687123299,-0.997822225094
1535040267433037551,0,1535040267432849327,kinect2_link,kinect2_rgb_optical_frame,0.0,0.0,0.0,0.0,0.0,0.0,1.0
1535040267433053783,0,1535040267432849327,kinect2_rgb_optical_frame,kinect2_ir_optical_frame,-0.0519399138017,0.00333959742795,0.00875866802314,-0.00453113942441,-0.00375492295549,0.00308026364555,0.999977940409
1535040267434825089,0,1535040267350028063,world,hand,0.213027000427,0.0964994430542,1.48467159271,0.0884988233447,-0.177412390709,-0.979977071285,0.0183766111732
1535040267437093009,0,1535040267350038587,world,checkerboard,2.42773032188,0.800530552864,1.53549313545,-0.374954432249,-0.639169335365,-0.600028395653,-0.301393091679
1535040267437101451,0,1535040267350042789,world,kinect2_mocap,0.104180552065,-1.32798027992,1.35418319702,-0.0323309004307,-0.0016517896438,0.0574693530798,-0.997822344303
1535040267443128380,0,1535040267442937487,kinect2_link,kinect2_rgb_optical_frame,0.0,0.0,0.0,0.0,0.0,0.0,1.0
1535040267443143905,0,1535040267442937487,kinect2_rgb_optical_frame,kinect2_ir_optical_frame,-0.0519399138017,0.00333959742795,0.00875866802314,-0.00453113942441,-0.00375492295549,0.00308026364555,0.999977940409
1535040267445017327,0,1535040267360271972,world,hand,0.210047766566,0.0961201414466,1.48245382309,0.0859320983291,-0.176322832704,-0.980433940887,0.0165958851576
1535040267447137615,0,1535040267360308727,world,checkerboard,2.42774128914,0.800518512726,1.53548967838,-0.374959588051,-0.639198184013,-0.599998354912,-0.301385253668
1535040267447149160,0,1535040267360321632,world,kinect2_mocap,0.104180000722,-1.3279800415,1.35418367386,-0.032326515764,-0.00165170594119,0.0574700571597,-0.997822463512
1535040267453254155,0,1535040267453063827,kinect2_link,kinect2_rgb_optical_frame,0.0,0.0,0.0,0.0,0.0,0.0,1.0
1535040267453264963,0,1535040267453063827,kinect2_rgb_optical_frame,kinect2_ir_optical_frame,-0.0519399138017,0.00333959742795,0.00875866802314,-0.00453113942441,-0.00375492295549,0.00308026364555,0.999977940409
1535040267455615296,0,1535040267370736352,world,hand,0.206726521254,0.0959119945765,1.48041760921,0.0887692943215,-0.177571550012,-0.979957342148,0.0164928976446
1535040267457738005,0,1535040267370746526,world,checkerboard,2.42773151398,0.800511002541,1.53547692299,-0.37504991889,-0.639135062695,-0.599994957447,-0.301413297653
1535040267457756663,0,1535040267370750562,world,kinect2_mocap,0.104179479182,-1.3279800415,1.35418391228,-0.0323231220245,-0.0016514287563,0.0574705190957,-0.997822463512
1535040267459544188,0,1535040267494712971,/kinect2_mocap,/kinect2_link,0.0801417617159,0.0689299826583,-0.011685626472,-0.704332345391,-0.0271284587477,0.0479526774544,0.707729139351
1535040267463666458,0,1535040267463537877,kinect2_link,kinect2_rgb_optical_frame,0.0,0.0,0.0,0.0,0.0,0.0,1.0
1535040267463692098,0,1535040267463537877,kinect2_rgb_optical_frame,kinect2_ir_optical_frame,-0.0519399138017,0.00333959742795,0.00875866802314,-0.00453113942441,-0.00375492295549,0.00308026364555,0.999977940409
1535040267466024355,0,1535040267381002496,world,hand,0.202941834927,0.0955635458231,1.47810602188,0.0883900225163,-0.177442505956,-0.980035305023,0.0152367427945
1535040267468480367,0,1535040267381012600,world,checkerboard,2.42774343491,0.800507426262,1.53546130657,-0.374967306852,-0.639108777046,-0.60006737709,-0.301427721977
1535040267468496555,0,1535040267381058545,world,kinect2_mocap,0.104179792106,-1.3279800415,1.35418510437,-0.0323340632021,-0.00165163015481,0.0574690029025,-0.997822225094
1535040267473884642,0,1535040267473630662,kinect2_link,kinect2_rgb_optical_frame,0.0,0.0,0.0,0.0,0.0,0.0,1.0
1535040267473899725,0,1535040267473630662,kinect2_rgb_optical_frame,kinect2_ir_optical_frame,-0.0519399138017,0.00333959742795,0.00875866802314,-0.00453113942441,-0.00375492295549,0.00308026364555,0.999977940409
1535040267475105844,0,1535040267390296189,world,hand,0.198857873678,0.0950366184115,1.47567462921,0.0860193446279,-0.175176724792,-0.98069947958,0.0119354818016
1535040267477277187,0,1535040267390323731,world,checkerboard,2.42775201797,0.800503909588,1.53544104099,-0.375028610229,-0.639158904552,-0.599984943867,-0.301409423351
1535040267477286366,0,1535040267390330763,world,kinect2_mocap,0.104179985821,-1.32798027992,1.35418570042,-0.0323456600308,-0.00165144377388,0.0574675425887,-0.997821986675
1535040267477296584,0,1535040267390341014,world,hand,0.194570496678,0.0945515483618,1.47359251976,0.0871526673436,-0.176105499268,-0.980454623699,0.0100012961775
1535040267477302002,0,1535040267390346251,world,checkerboard,2.42774295807,0.800520777702,1.53544557095,-0.374955028296,-0.63916260004,-0.600043237209,-0.301377058029
1535040267477306773,0,1535040267390350604,world,kinect2_mocap,0.104178898036,-1.32798135281,1.35418629646,-0.0323539227247,-0.00165119604208,0.0574664771557,-0.997821748257
1535040267483913918,0,1535040267483707066,kinect2_link,kinect2_rgb_optical_frame,0.0,0.0,0.0,0.0,0.0,0.0,1.0
1535040267483931591,0,1535040267483707066,kinect2_rgb_optical_frame,kinect2_ir_optical_frame,-0.0519399138017,0.00333959742795,0.00875866802314,-0.00453113942441,-0.00375492295549,0.00308026364555,0.999977940409
1535040267485508366,0,1535040267400610992,world,hand,0.190034046769,0.094244517386,1.47122859955,0.0864919796586,-0.176740497351,-0.980421662331,0.00743361702189
1535040267488014089,0,1535040267400620825,world,checkerboard,2.42773532867,0.800511300564,1.53544104099,-0.374998152256,-0.639137208462,-0.600054979324,-0.301353871822
1535040267488028363,0,1535040267400686366,world,kinect2_mocap,0.104178324342,-1.32798135281,1.35418570042,-0.0323484055698,-0.00165089813527,0.0574673973024,-0.997821867466
1535040267494181724,0,1535040267493812537,kinect2_link,kinect2_rgb_optical_frame,0.0,0.0,0.0,0.0,0.0,0.0,1.0
1535040267494197164,0,1535040267493812537,kinect2_rgb_optical_frame,kinect2_ir_optical_frame,-0.0519399138017,0.00333959742795,0.00875866802314,-0.00453113942441,-0.00375492295549,0.00308026364555,0.999977940409
1535040267497601354,0,1535040267410919287,world,hand,0.185058698058,0.0937066525221,1.46873044968,0.0854793488979,-0.175169333816,-0.980814695358,0.00342554459348
1535040267499983711,0,1535040267410949156,world,checkerboard,2.42775011063,0.800525546074,1.53543829918,-0.374952048063,-0.639153063297,-0.600044429302,-0.301398515701
1535040267499995963,0,1535040267410955051,world,kinect2_mocap,0.104177750647,-1.32798135281,1.35418522358,-0.032343916595,-0.00165040686261,0.0574682913721,-0.997821986675
1535040267504040270,0,1535040267503920715,kinect2_link,kinect2_rgb_optical_frame,0.0,0.0,0.0,0.0,0.0,0.0,1.0
1535040267504052131,0,1535040267503920715,kinect2_rgb_optical_frame,kinect2_ir_optical_frame,-0.0519399138017,0.00333959742795,0.00875866802314,-0.00453113942441,-0.00375492295549,0.00308026364555,0.999977940409
1535040267504992218,0,1535040267420183910,world,hand,0.179862767458,0.0933602377772,1.46598279476,0.0830868110061,-0.172952383757,-0.98141938448,0.000201254253625
1535040267507523089,0,1535040267420192190,world,checkerboard,2.42774939537,0.800528824329,1.53541648388,-0.374974817038,-0.639199137688,-0.60001128912,-0.301338404417
1535040267507548261,0,1535040267420196131,world,kinect2_mocap,0.104177981615,-1.32798087597,1.35418355465,-0.0323163159192,-0.00164931383915,0.0574744194746,-0.997822463512
1535040267514192156,0,1535040267514021037,kinect2_link,kinect2_rgb_optical_frame,0.0,0.0,0.0,0.0,0.0,0.0,1.0
1535040267514203944,0,1535040267514021037,kinect2_rgb_optical_frame,kinect2_ir_optical_frame,-0.0519399138017,0.00333959742795,0.00875866802314,-0.00453113942441,-0.00375492295549,0.00308026364555,0.999977940409
1535040267515222006,0,1535040267430452198,world,hand,0.174430012703,0.0929943397641,1.46343755722,0.0817508399487,-0.172116488218,-0.981671333313,-0.0037500562612
1535040267517494534,0,1535040267430463787,world,checkerboard,2.42774438858,0.800512731075,1.53542995453,-0.374929785728,-0.639046430588,-0.600186467171,-0.301369547844
1535040267517510516,0,1535040267430574236,world,kinect2_mocap,0.104178197682,-1.32798075676,1.35418236256,-0.0322891660035,-0.00164787960239,0.057480469346,-0.997823059559
1535040267526123202,0,1535040267440760484,world,hand,0.168623268604,0.0926018133759,1.46106815338,0.0825970321894,-0.172700837255,-0.981475770473,-0.00757875200361
1535040267526144868,0,1535040267524100855,kinect2_link,kinect2_rgb_optical_frame,0.0,0.0,0.0,0.0,0.0,0.0,1.0
1535040267526163694,0,1535040267524100855,kinect2_rgb_optical_frame,kinect2_ir_optical_frame,-0.0519399138017,0.00333959742795,0.00875866802314,-0.00453113942441,-0.00375492295549,0.00308026364555,0.999977940409
1535040267528212209,0,1535040267440769384,world,checkerboard,2.42775416374,0.800523638725,1.53541922569,-0.37496510148,-0.639087498188,-0.600104629993,-0.301401466131
1535040267528226171,0,1535040267440774303,world,kinect2_mocap,0.104178480804,-1.32798027992,1.35418117046,-0.0322623811662,-0.00164640170988,0.0574865192175,-0.997823536396
1535040267528349546,0,1535040267440831823,world,hand,0.16253605485,0.0922915488482,1.45840525627,0.0798644796014,-0.170429438353,-0.982056260109,-0.0118747651577
1535040267528357516,0,1535040267440837425,world,checkerboard,2.4277472496,0.800504803658,1.53543865681,-0.37496098876,-0.639150559902,-0.60003644228,-0.3014087677
1535040267528362589,0,1535040267440843199,world,kinect2_mocap,0.104178130627,-1.32798027992,1.35418117046,-0.0322590023279,-0.0016462081112,0.057487398386,-0.997823655605
1535040267534370270,0,1535040267534187657,kinect2_link,kinect2_rgb_optical_frame,0.0,0.0,0.0,0.0,0.0,0.0,1.0
1535040267534385453,0,1535040267534187657,kinect2_rgb_optical_frame,kinect2_ir_optical_frame,-0.0519399138017,0.00333959742795,0.00875866802314,-0.00453113942441,-0.00375492295549,0.00308026364555,0.999977940409
1535040267534967712,0,1535040267450019383,world,hand,0.156234353781,0.0920194387436,1.45578181744,0.0787176042795,-0.171122893691,-0.981969714165,-0.0159999504685
1535040267536982004,0,1535040267450038062,world,checkerboard,2.42774391174,0.80051445961,1.53544914722,-0.374930471182,-0.639076888561,-0.60012447834,-0.301427602768
1535040267536997812,0,1535040267450044938,world,kinect2_mocap,0.104177825153,-1.32798027992,1.35418117046,-0.0322557985783,-0.00164593628142,0.057488348335,-0.997823655605
1535040267544448042,0,1535040267544285271,kinect2_link,kinect2_rgb_optical_frame,0.0,0.0,0.0,0.0,0.0,0.0,1.0
1535040267544461142,0,1535040267544285271,kinect2_rgb_optical_frame,kinect2_ir_optical_frame,-0.0519399138017,0.00333959742795,0.00875866802314,-0.00453113942441,-0.00375492295549,0.00308026364555,0.999977940409
1535040267544956478,0,1535040267460249287,world,hand,0.149668052793,0.0917488783598,1.45310103893,0.0759557187557,-0.169731229544,-0.982333779335,-0.0210317131132
1535040267547285622,0,1535040267460281365,world,checkerboard,2.42777442932,0.800525426865,1.53545045853,-0.374977886677,-0.639057993889,-0.600100815296,-0.301455706358
1535040267547295240,0,1535040267460289393,world,kinect2_mocap,0.104177340865,-1.32798027992,1.35418117046,-0.0322511158884,-0.00164570601191,0.057489361614,-0.997823774815
1535040267555402504,0,1535040267470569180,world,hand,0.142985671759,0.0916229337454,1.45054483414,0.0772890150547,-0.171485871077,-0.981798291206,-0.026292135939
1535040267557760664,0,1535040267470604708,world,checkerboard,2.42777276039,0.800512373447,1.53543996811,-0.37498408556,-0.639098525047,-0.600072562695,-0.301418453455
1535040267557785011,0,1535040267470613038,world,kinect2_mocap,0.104176811874,-1.32798051834,1.35418093204,-0.0322473086417,-0.00164599251002,0.057490799576,-0.997823774815
1535040267560778444,0,1535040267554379596,kinect2_link,kinect2_rgb_optical_frame,0.0,0.0,0.0,0.0,0.0,0.0,1.0
1535040267560794441,0,1535040267554379596,kinect2_rgb_optical_frame,kinect2_ir_optical_frame,-0.0519399138017,0.00333959742795,0.00875866802314,-0.00453113942441,-0.00375492295549,0.00308026364555,0.999977940409
1535040267565766965,0,1535040267565580123,kinect2_link,kinect2_rgb_optical_frame,0.0,0.0,0.0,0.0,0.0,0.0,1.0
1535040267565805389,0,1535040267565580123,kinect2_rgb_optical_frame,kinect2_ir_optical_frame,-0.0519399138017,0.00333959742795,0.00875866802314,-0.00453113942441,-0.00375492295549,0.00308026364555,0.999977940409
1535040267566041892,0,1535040267480878922,world,hand,0.135900810361,0.0915682464838,1.44773864746,0.0735592097044,-0.169810220599,-0.98221039772,-0.0318788476288
1535040267568446591,0,1535040267480889167,world,checkerboard,2.42778611183,0.800518453121,1.53540790081,-0.374950528145,-0.639030575752,-0.600144207478,-0.301461577415
1535040267568456120,0,1535040267480893432,world,kinect2_mocap,0.104176320136,-1.32798075676,1.35418069363,-0.0322442725301,-0.0016469337279,0.0574913397431,-0.997823894024
1535040267575206819,0,1535040267490202930,world,hand,0.128623455763,0.0914234742522,1.4452508688,0.0729583501816,-0.171243488789,-0.981746017933,-0.0390850566328
1535040267575769236,0,1535040267575671981,kinect2_link,kinect2_rgb_optical_frame,0.0,0.0,0.0,0.0,0.0,0.0,1.0
1535040267575779366,0,1535040267575671981,kinect2_rgb_optical_frame,kinect2_ir_optical_frame,-0.0519399138017,0.00333959742795,0.00875866802314,-0.00453113942441,-0.00375492295549,0.00308026364555,0.999977940409
1535040267577254376,0,1535040267490214085,world,checkerboard,2.42778635025,0.800518095493,1.5353975296,-0.37488296628,-0.639116108418,-0.600133657455,-0.301385223866
1535040267577273278,0,1535040267490219196,world,kinect2_mocap,0.104175291955,-1.32798159122,1.35417926311,-0.0322133079171,-0.00164575839881,0.0574980638921,-0.99782449007
1535040267577278134,0,1535040267490259393,world,hand,0.121255114675,0.0914311259985,1.44250524044,0.0708606913686,-0.170619517565,-0.981763839722,-0.0448075421154
1535040267577285109,0,1535040267490266487,world,checkerboard,2.42780280113,0.800524294376,1.53540456295,-0.374920964241,-0.639098823071,-0.60014039278,-0.301361143589
1535040267577289309,0,1535040267490271051,world,kinect2_mocap,0.104175575078,-1.32798159122,1.35417759418,-0.0321868993342,-0.00164539192338,0.0575037300587,-0.997824966908
1535040267579756182,0,1535040267614796281,/kinect2_mocap,/kinect2_link,0.0801417617159,0.0689299826583,-0.011685626472,-0.704332345391,-0.0271284587477,0.0479526774544,0.707729139351
1535040267585761545,0,1535040267500769344,world,hand,0.113744013011,0.0914615467191,1.43981456757,0.0709597840905,-0.172283113003,-0.98108714819,-0.0524517260492
1535040267585996381,0,1535040267585750308,kinect2_link,kinect2_rgb_optical_frame,0.0,0.0,0.0,0.0,0.0,0.0,1.0
1535040267586044458,0,1535040267585750308,kinect2_rgb_optical_frame,kinect2_ir_optical_frame,-0.0519399138017,0.00333959742795,0.00875866802314,-0.00453113942441,-0.00375492295549,0.00308026364555,0.999977940409
1535040267588100386,0,1535040267500779676,world,checkerboard,2.42778849602,0.800533652306,1.53540349007,-0.374908536673,-0.639145195484,-0.600123345852,-0.30131226778
1535040267588113724,0,1535040267500783626,world,kinect2_mocap,0.104175888002,-1.32798159122,1.35417592525,-0.0321615226567,-0.00164538621902,0.0575091689825,-0.997825443745
1535040267596500950,0,1535040267595852233,kinect2_link,kinect2_rgb_optical_frame,0.0,0.0,0.0,0.0,0.0,0.0,1.0
1535040267596519303,0,1535040267595852233,kinect2_rgb_optical_frame,kinect2_ir_optical_frame,-0.0519399138017,0.00333959742795,0.00875866802314,-0.00453113942441,-0.00375492295549,0.00308026364555,0.999977940409
1535040267597810978,0,1535040267510978164,world,hand,0.105810962617,0.0916212648153,1.4370816946,0.0683664306998,-0.171446815133,-0.981017708778,-0.0594677142799
1535040267599801237,0,1535040267510987412,world,checkerboard,2.42782187462,0.800529241562,1.53540599346,-0.37496638298,-0.639120340347,-0.600066781044,-0.301405370235
1535040267599805893,0,1535040267510991491,world,kinect2_mocap,0.104176171124,-1.32798135281,1.35417425632,-0.0321347340941,-0.00164497736841,0.0575152225792,-0.997826039791
1535040267604982898,0,1535040267520209352,world,hand,0.0977725461125,0.0918556079268,1.43457269669,0.0680726766586,-0.171028211713,-0.980775654316,-0.0647668763995
1535040267606063715,0,1535040267605957795,kinect2_link,kinect2_rgb_optical_frame,0.0,0.0,0.0,0.0,0.0,0.0,1.0
1535040267606074920,0,1535040267605957795,kinect2_rgb_optical_frame,kinect2_ir_optical_frame,-0.0519399138017,0.00333959742795,0.00875866802314,-0.00453113942441,-0.00375492295549,0.00308026364555,0.999977940409
1535040267607340924,0,1535040267520219923,world,checkerboard,2.42781877518,0.800532400608,1.53542232513,-0.374926000834,-0.63908046484,-0.600123226643,-0.301428109407
1535040267607351100,0,1535040267520274565,world,kinect2_mocap,0.104176349938,-1.32798111439,1.35417282581,-0.0321102179587,-0.00164509005845,0.0575201176107,-0.997826516628
1535040267615324591,0,1535040267530493021,world,hand,0.0896068289876,0.0921382158995,1.43179237843,0.0668517351151,-0.170570775867,-0.980434238911,-0.0720091536641
1535040267616203775,0,1535040267616034705,kinect2_link,kinect2_rgb_optical_frame,0.0,0.0,0.0,0.0,0.0,0.0,1.0
1535040267616215493,0,1535040267616034705,kinect2_rgb_optical_frame,kinect2_ir_optical_frame,-0.0519399138017,0.00333959742795,0.00875866802314,-0.00453113942441,-0.00375492295549,0.00308026364555,0.999977940409
1535040267617677648,0,1535040267530503177,world,checkerboard,2.42782711983,0.800525784492,1.53542757034,-0.374965846539,-0.639117181301,-0.600084245205,-0.301378011703
1535040267617692353,0,1535040267530557260,world,kinect2_mocap,0.104176588356,-1.32798087597,1.35417163372,-0.0320862643421,-0.00164499122184,0.0575249381363,-0.997826993465
1535040267625678575,0,1535040267540784700,world,hand,0.0820262506604,0.0920794680715,1.42891836166,0.064214348793,-0.176586449146,-0.978264272213,-0.0877082720399
1535040267626487115,0,1535040267626148155,kinect2_link,kinect2_rgb_optical_frame,0.0,0.0,0.0,0.0,0.0,0.0,1.0
1535040267626497344,0,1535040267626148155,kinect2_rgb_optical_frame,kinect2_ir_optical_frame,-0.0519399138017,0.00333959742795,0.00875866802314,-0.00453113942441,-0.00375492295549,0.00308026364555,0.999977940409
1535040267627512843,0,1535040267540794441,world,checkerboard,2.42779707909,0.800510883331,1.53542137146,-0.37497356534,-0.639152765274,-0.600048482418,-0.301364243031
1535040267627524352,0,1535040267540798728,world,kinect2_mocap,0.104175634682,-1.32798159122,1.35417044163,-0.0320590548217,-0.00164404069073,0.05753050372,-0.997827589512
1535040267627541119,0,1535040267540804770,world,hand,0.0734306052327,0.0924959331751,1.42650806904,0.0645378082991,-0.17255756259,-0.978552281857,-0.0921644642949
1535040267627546840,0,1535040267540808107,world,checkerboard,2.4278011322,0.800531029701,1.53543710709,-0.374922543764,-0.639091432095,-0.600130021572,-0.301395624876
1535040267627579226,0,1535040267540811467,world,kinect2_mocap,0.10417509824,-1.32798159122,1.35417044163,-0.0320574343204,-0.00164488272276,0.0575301721692,-0.997827708721
1535040267634765451,0,1535040267550001319,world,hand,0.0645186528563,0.0931710749865,1.42395937443,0.0633746385574,-0.169307917356,-0.978988051414,-0.0943453088403
1535040267636361703,0,1535040267636232280,kinect2_link,kinect2_rgb_optical_frame,0.0,0.0,0.0,0.0,0.0,0.0,1.0
1535040267636373500,0,1535040267636232280,kinect2_rgb_optical_frame,kinect2_ir_optical_frame,-0.0519399138017,0.00333959742795,0.00875866802314,-0.00453113942441,-0.00375492295549,0.00308026364555,0.999977940409
1535040267637154173,0,1535040267550010904,world,checkerboard,2.42778587341,0.800505697727,1.53544473648,-0.37487205863,-0.639131009579,-0.600151956081,-0.30133074522
1535040267637160517,0,1535040267550015069,world,kinect2_mocap,0.104175500572,-1.32798111439,1.35416924953,-0.0320346690714,-0.00164473277982,0.0575338602066,-0.997828185558
1535040267645079620,0,1535040267560245827,world,hand,0.0570661909878,0.0931624919176,1.42107582092,0.0615987926722,-0.175688311458,-0.975563168526,-0.116686888039
1535040267646454692,0,1535040267646341819,kinect2_link,kinect2_rgb_optical_frame,0.0,0.0,0.0,0.0,0.0,0.0,1.0
1535040267646461607,0,1535040267646341819,kinect2_rgb_optical_frame,kinect2_ir_optical_frame,-0.0519399138017,0.00333959742795,0.00875866802314,-0.00453113942441,-0.00375492295549,0.00308026364555,0.999977940409
1535040267647182737,0,1535040267560279372,world,checkerboard,2.4277780056,0.80049932003,1.53543436527,-0.374913781881,-0.639126002789,-0.600125789642,-0.301341623068
1535040267647194343,0,1535040267560289252,world,kinect2_mocap,0.104175783694,-1.32798087597,1.35416805744,-0.032010614872,-0.00164429005235,0.0575381033123,-0.997828662395
1535040267655204482,0,1535040267570483075,world,hand,0.0473218560219,0.0943222343922,1.41866219044,0.061852414161,-0.167291626334,-0.977705061436,-0.110818952322
1535040267656576082,0,1535040267656422528,kinect2_link,kinect2_rgb_optical_frame,0.0,0.0,0.0,0.0,0.0,0.0,1.0
1535040267656586390,0,1535040267656422528,kinect2_rgb_optical_frame,kinect2_ir_optical_frame,-0.0519399138017,0.00333959742795,0.00875866802314,-0.00453113942441,-0.00375492295549,0.00308026364555,0.999977940409
1535040267657076093,0,1535040267570511496,world,checkerboard,2.42778801918,0.800498127937,1.53542172909,-0.37495008111,-0.639130473137,-0.600093364716,-0.301351338625
1535040267657086863,0,1535040267570517566,world,kinect2_mocap,0.104176156223,-1.32798075676,1.35416662693,-0.0319864563644,-0.00164383940864,0.0575425177813,-0.997829258442
1535040267665620212,0,1535040267580715011,world,hand,0.0386492013931,0.0951093956828,1.41601097584,0.0610786601901,-0.166308328509,-0.976761639118,-0.120613634586
1535040267666655079,0,1535040267666504889,kinect2_link,kinect2_rgb_optical_frame,0.0,0.0,0.0,0.0,0.0,0.0,1.0
1535040267666664560,0,1535040267666504889,kinect2_rgb_optical_frame,kinect2_ir_optical_frame,-0.0519399138017,0.00333959742795,0.00875866802314,-0.00453113942441,-0.00375492295549,0.00308026364555,0.999977940409
1535040267667822109,0,1535040267580723097,world,checkerboard,2.42778158188,0.800488650799,1.5354039669,-0.374939769506,-0.63916260004,-0.600073993206,-0.301334559917
1535040267667831599,0,1535040267580777624,world,kinect2_mocap,0.104176528752,-1.32798051834,1.35416519642,-0.0319625362754,-0.0016430283431,0.0575471147895,-0.997829735279
1535040267675748108,0,1535040267590946482,world,hand,0.0300654489547,0.0959542319179,1.41355824471,0.0593075118959,-0.166926011443,-0.975535511971,-0.130187600851
1535040267676763830,0,1535040267676589301,kinect2_link,kinect2_rgb_optical_frame,0.0,0.0,0.0,0.0,0.0,0.0,1.0
1535040267676776897,0,1535040267676589301,kinect2_rgb_optical_frame,kinect2_ir_optical_frame,-0.0519399138017,0.00333959742795,0.00875866802314,-0.00453113942441,-0.00375492295549,0.00308026364555,0.999977940409
1535040267677738643,0,1535040267590959952,world,checkerboard,2.42779541016,0.800509691238,1.53539502621,-0.374939531088,-0.639103472233,-0.600125730038,-0.301357477903
1535040267677769975,0,1535040267590966440,world,kinect2_mocap,0.104176998138,-1.32798051834,1.35416352749,-0.0319393724203,-0.00164215371478,0.0575515963137,-0.997830212116
1535040267677775003,0,1535040267590976453,world,hand,0.0214602258056,0.0970520600677,1.41080868244,0.0571632087231,-0.166389808059,-0.974453210831,-0.139598757029
1535040267677779040,0,1535040267591027134,world,checkerboard,2.42777109146,0.800508975983,1.53540170193,-0.374990969896,-0.639138400555,-0.600050806999,-0.301368385553
1535040267677782544,0,1535040267591037053,world,kinect2_mocap,0.104177422822,-1.32798051834,1.35416185856,-0.0319167599082,-0.00164179992862,0.0575559549034,-0.997830688953
1535040267685241753,0,1535040267600257453,world,hand,0.0128584774211,0.0982256755233,1.40826046467,0.0557628422976,-0.16610442102,-0.973268151283,-0.148488864303
1535040267687394061,0,1535040267600287079,world,checkerboard,2.42777919769,0.800524830818,1.53541278839,-0.374987900257,-0.639070272446,-0.600106656551,-0.301405489445
1535040267687413450,0,1535040267600295604,world,kinect2_mocap,0.104177817702,-1.32798051834,1.35416018963,-0.0318944901228,-0.00164115813095,0.0575603432953,-0.997831165791
1535040267688675473,0,1535040267686680759,kinect2_link,kinect2_rgb_optical_frame,0.0,0.0,0.0,0.0,0.0,0.0,1.0
1535040267688691179,0,1535040267686680759,kinect2_rgb_optical_frame,kinect2_ir_optical_frame,-0.0519399138017,0.00333959742795,0.00875866802314,-0.00453113942441,-0.00375492295549,0.00308026364555,0.999977940409
1535040267696377329,0,1535040267610519344,world,hand,0.00431822892278,0.0994583368301,1.40585887432,0.0562834367156,-0.166226163507,-0.971662998199,-0.158341810107
1535040267697034305,0,1535040267696793894,kinect2_link,kinect2_rgb_optical_frame,0.0,0.0,0.0,0.0,0.0,0.0,1.0
1535040267697063406,0,1535040267696793894,kinect2_rgb_optical_frame,kinect2_ir_optical_frame,-0.0519399138017,0.00333959742795,0.00875866802314,-0.00453113942441,-0.00375492295549,0.00308026364555,0.999977940409
1535040267698371784,0,1535040267610557147,world,checkerboard,2.42776226997,0.800515770912,1.53541564941,-0.374973773956,-0.639089524746,-0.600094377995,-0.301406562328
1535040267698386025,0,1535040267610564910,world,kinect2_mocap,0.104178316891,-1.32798051834,1.35415875912,-0.0318740829825,-0.00164109875914,0.0575639232993,-0.997831583023
1535040267699659755,0,1535040267734892094,/kinect2_mocap,/kinect2_link,0.0801417617159,0.0689299826583,-0.011685626472,-0.704332345391,-0.0271284587477,0.0479526774544,0.707729139351
1535040267705795600,0,1535040267620807330,world,hand,-0.00406543398276,0.100892968476,1.40335583687,0.0555005222559,-0.164687901735,-0.970541596413,-0.166873455048
1535040267707079151,0,1535040267706926874,kinect2_link,kinect2_rgb_optical_frame,0.0,0.0,0.0,0.0,0.0,0.0,1.0
1535040267707088658,0,1535040267706926874,kinect2_rgb_optical_frame,kinect2_ir_optical_frame,-0.0519399138017,0.00333959742795,0.00875866802314,-0.00453113942441,-0.00375492295549,0.00308026364555,0.999977940409
1535040267708096700,0,1535040267620821323,world,checkerboard,2.42776966095,0.80050778389,1.53542912006,-0.375000149012,-0.639134526253,-0.600000977516,-0.301464617252
1535040267708104030,0,1535040267620830317,world,kinect2_mocap,0.104178734124,-1.32798051834,1.35415768623,-0.0318549536169,-0.00164115300868,0.0575672164559,-0.997832000256
1535040267714946186,0,1535040267630167359,world,hand,-0.0114587983117,0.101913124323,1.4012696743,0.0623618140817,-0.162002414465,-0.967191874981,-0.185489028692
1535040267716939920,0,1535040267630198754,world,checkerboard,2.42777848244,0.800523340702,1.53544306755,-0.375038802624,-0.639063060284,-0.600047171116,-0.301475942135
1535040267716948256,0,1535040267630206087,world,kinect2_mocap,0.104178331792,-1.32798075676,1.35415780544,-0.0318581908941,-0.00164216116536,0.0575660541654,-0.997831940651
1535040267717134248,0,1535040267717003421,kinect2_link,kinect2_rgb_optical_frame,0.0,0.0,0.0,0.0,0.0,0.0,1.0
1535040267717141021,0,1535040267717003421,kinect2_rgb_optical_frame,kinect2_ir_optical_frame,-0.0519399138017,0.00333959742795,0.00875866802314,-0.00453113942441,-0.00375492295549,0.00308026364555,0.999977940409
1535040267725146451,0,1535040267640432864,world,hand,-0.0194121077657,0.103474833071,1.39888739586,0.0614970698953,-0.162934139371,-0.965131521225,-0.195426896214
1535040267727481516,0,1535040267727082361,kinect2_link,kinect2_rgb_optical_frame,0.0,0.0,0.0,0.0,0.0,0.0,1.0
1535040267727552374,0,1535040267727082361,kinect2_rgb_optical_frame,kinect2_ir_optical_frame,-0.0519399138017,0.00333959742795,0.00875866802314,-0.00453113942441,-0.00375492295549,0.00308026364555,0.999977940409
1535040267727715915,0,1535040267640463400,world,checkerboard,2.42776751518,0.800522208214,1.53543293476,-0.374994039536,-0.63914835453,-0.600021004677,-0.30140286684
1535040267727769606,0,1535040267640470972,world,kinect2_mocap,0.104178704321,-1.32798051834,1.35415697098,-0.0318387784064,-0.00164211320225,0.0575699694455,-0.997832357883
1535040267727777412,0,1535040267640479991,world,hand,-0.0271437186748,0.105224736035,1.39647376537,0.0609511584044,-0.160700663924,-0.96351057291,-0.205201730132
1535040267727812985,0,1535040267640485085,world,checkerboard,2.4277536869,0.80052793026,1.53544914722,-0.374992281199,-0.639077305794,-0.600075423717,-0.301447421312
1535040267727821349,0,1535040267640489398,world,kinect2_mocap,0.104179002345,-1.32798027992,1.35415637493,-0.0318212807178,-0.00164211029187,0.0575737208128,-0.997832655907
1535040267735944093,0,1535040267650815275,world,hand,-0.034941855818,0.106961779296,1.39442455769,0.061216019094,-0.160274609923,-0.962053179741,-0.212175428867
1535040267737329015,0,1535040267737178820,kinect2_link,kinect2_rgb_optical_frame,0.0,0.0,0.0,0.0,0.0,0.0,1.0
1535040267737338787,0,1535040267737178820,kinect2_rgb_optical_frame,kinect2_ir_optical_frame,-0.0519399138017,0.00333959742795,0.00875866802314,-0.00453113942441,-0.00375492295549,0.00308026364555,0.999977940409
1535040267738193822,0,1535040267650863999,world,checkerboard,2.42775082588,0.800524234772,1.53544616699,-0.374954998493,-0.6390376091,-0.600108265877,-0.301512509584
1535040267738205314,0,1535040267650895321,world,kinect2_mocap,0.104179158807,-1.3279800415,1.35415542126,-0.0318034701049,-0.00164223916363,0.0575772598386,-0.997833073139
1535040267744951230,0,1535040267660205891,world,hand,-0.0421240739524,0.108760632575,1.39200270176,0.0630145967007,-0.160124748945,-0.959701955318,-0.22217439115
1535040267747275918,0,1535040267660237454,world,checkerboard,2.427734375,0.800521314144,1.53545236588,-0.374944388866,-0.63913589716,-0.60008174181,-0.301370114088
1535040267747292352,0,1535040267660245058,world,kinect2_mocap,0.104179255664,-1.32797956467,1.354154706,-0.0317856818438,-0.00164213450626,0.0575808137655,-0.997833371162
1535040267747460305,0,1535040267747281398,kinect2_link,kinect2_rgb_optical_frame,0.0,0.0,0.0,0.0,0.0,0.0,1.0
1535040267747470931,0,1535040267747281398,kinect2_rgb_optical_frame,kinect2_ir_optical_frame,-0.0519399138017,0.00333959742795,0.00875866802314,-0.00453113942441,-0.00375492295549,0.00308026364555,0.999977940409
1535040267755271938,0,1535040267670494086,world,hand,-0.0492785945535,0.110669195652,1.39006268978,0.0585461780429,-0.159299224615,-0.957906484604,-0.231541141868
1535040267757565849,0,1535040267757401267,kinect2_link,kinect2_rgb_optical_frame,0.0,0.0,0.0,0.0,0.0,0.0,1.0
1535040267757578115,0,1535040267757401267,kinect2_rgb_optical_frame,kinect2_ir_optical_frame,-0.0519399138017,0.00333959742795,0.00875866802314,-0.00453113942441,-0.00375492295549,0.00308026364555,0.999977940409
1535040267757593299,0,1535040267670505029,world,checkerboard,2.42760396004,0.800511479378,1.53538441658,-0.374780982733,-0.639624655247,-0.599904835224,-0.300888299942
1535040267757599384,0,1535040267670530535,world,kinect2_mocap,0.104178488255,-1.32797980309,1.35415494442,-0.0317901782691,-0.00164293660782,0.0575792640448,-0.997833311558
1535040267765608639,0,1535040267680804945,world,hand,-0.0558724291623,0.11266002804,1.3878916502,0.0611048266292,-0.159318849444,-0.955890655518,-0.239074856043
1535040267767653956,0,1535040267680840240,world,checkerboard,2.42758512497,0.800521373749,1.53539037704,-0.374790936708,-0.639598488808,-0.599902153015,-0.300936669111
1535040267767667753,0,1535040267680848412,world,kinect2_mocap,0.104178674519,-1.32797956467,1.35415399075,-0.0317725203931,-0.00164279050659,0.0575829036534,-0.99783372879
1535040267767672416,0,1535040267767498328,kinect2_link,kinect2_rgb_optical_frame,0.0,0.0,0.0,0.0,0.0,0.0,1.0
1535040267767681248,0,1535040267767498328,kinect2_rgb_optical_frame,kinect2_ir_optical_frame,-0.0519399138017,0.00333959742795,0.00875866802314,-0.00453113942441,-0.00375492295549,0.00308026364555,0.999977940409
1535040267774962612,0,1535040267690159058,world,hand,-0.0621742270887,0.114597044885,1.38594996929,0.0616144761443,-0.160932302475,-0.953805863857,-0.246087118983
1535040267777294927,0,1535040267690189640,world,checkerboard,2.42770552635,0.800549149513,1.53542625904,-0.375050365925,-0.639162957668,-0.599978387356,-0.301386624575
1535040267777329203,0,1535040267690197556,world,kinect2_mocap,0.104178845882,-1.32797956467,1.35415303707,-0.0317554697394,-0.00164264987689,0.0575866773725,-0.997834026814
1535040267777352215,0,1535040267690206629,world,hand,-0.0687792599201,0.116870373487,1.38414049149,0.0552429929376,-0.158002659678,-0.952367722988,-0.254910051823
1535040267777357610,0,1535040267690211688,world,checkerboard,2.42772912979,0.800520658493,1.53543269634,-0.375068902969,-0.639087915421,-0.600019752979,-0.30144032836
1535040267777362798,0,1535040267690217275,world,kinect2_mocap,0.104176923633,-1.32798087597,1.35415303707,-0.0317570604384,-0.00164278701413,0.0575862154365,-0.997833967209
1535040267777746697,0,1535040267777606047,kinect2_link,kinect2_rgb_optical_frame,0.0,0.0,0.0,0.0,0.0,0.0,1.0
1535040267777756033,0,1535040267777606047,kinect2_rgb_optical_frame,kinect2_ir_optical_frame,-0.0519399138017,0.00333959742795,0.00875866802314,-0.00453113942441,-0.00375492295549,0.00308026364555,0.999977940409
1535040267785492455,0,1535040267700599977,world,hand,-0.074563279748,0.118605233729,1.38242816925,0.0536811649799,-0.15909165144,-0.95093536377,-0.259865939617
1535040267787922660,0,1535040267700609431,world,checkerboard,2.42777895927,0.800507903099,1.53544473648,-0.374951004982,-0.639020621777,-0.600145220757,-0.301479816437
1535040267787942771,0,1535040267700613649,world,kinect2_mocap,0.10417701304,-1.32798051834,1.3541520834,-0.0317388661206,-0.00164242170285,0.057589828968,-0.997834384441
1535040267789661474,0,1535040267787688090,kinect2_link,kinect2_rgb_optical_frame,0.0,0.0,0.0,0.0,0.0,0.0,1.0
1535040267796559900,0,1535040267787688090,kinect2_rgb_optical_frame,kinect2_ir_optical_frame,-0.0519399138017,0.00333959742795,0.00875866802314,-0.00453113942441,-0.00375492295549,0.00308026364555,0.999977940409
1535040267797749627,0,1535040267710916729,world,hand,-0.0790555998683,0.120718471706,1.38048446178,0.0621798485518,-0.162672445178,-0.947870969772,-0.266855984926
1535040267800010885,0,1535040267799593277,kinect2_link,kinect2_rgb_optical_frame,0.0,0.0,0.0,0.0,0.0,0.0,1.0
1535040267800030291,0,1535040267799593277,kinect2_rgb_optical_frame,kinect2_ir_optical_frame,-0.0519399138017,0.00333959742795,0.00875866802314,-0.00453113942441,-0.00375492295549,0.00308026364555,0.999977940409
1535040267800039132,0,1535040267710981669,world,checkerboard,2.42774939537,0.800510108471,1.53545331955,-0.374966740608,-0.639130473137,-0.600078582764,-0.30136013031
1535040267800044294,0,1535040267710993402,world,kinect2_mocap,0.104176968336,-1.32798027992,1.35415112972,-0.0317220129073,-0.00164222822059,0.0575930587947,-0.997834682465
1535040267805201078,0,1535040267720275163,world,hand,-0.0841378942132,0.122649781406,1.3785148859,0.0604995451868,-0.161256954074,-0.945865869522,-0.275088816881
1535040267807401844,0,1535040267720288340,world,checkerboard,2.42777037621,0.800491094589,1.53545761108,-0.374975532293,-0.639057695866,-0.600113987923,-0.301432937384
1535040267807417198,0,1535040267720294974,world,kinect2_mocap,0.104176938534,-1.32798027992,1.3541520834,-0.0317410752177,-0.00164294999558,0.0575895495713,-0.997834384441
1535040267809839555,0,1535040267809708775,kinect2_link,kinect2_rgb_optical_frame,0.0,0.0,0.0,0.0,0.0,0.0,1.0
1535040267809849799,0,1535040267809708775,kinect2_rgb_optical_frame,kinect2_ir_optical_frame,-0.0519399138017,0.00333959742795,0.00875866802314,-0.00453113942441,-0.00375492295549,0.00308026364555,0.999977940409
1535040267815441399,0,1535040267730544754,world,hand,-0.0886170342565,0.124519810081,1.37669038773,0.0598278716207,-0.161929324269,-0.944001972675,-0.28117582202
1535040267817547622,0,1535040267730557925,world,checkerboard,2.42776274681,0.800499498844,1.53545928001,-0.374964982271,-0.639149427414,-0.600059986115,-0.301359117031
1535040267817557258,0,1535040267730564024,world,kinect2_mocap,0.104176968336,-1.3279800415,1.35415327549,-0.0317592732608,-0.00164325512014,0.0575861595571,-0.997833967209
1535040267819889669,0,1535040267855001446,/kinect2_mocap,/kinect2_link,0.0801417617159,0.0689299826583,-0.011685626472,-0.704332345391,-0.0271284587477,0.0479526774544,0.707729139351
1535040267821873454,0,1535040267819797027,kinect2_link,kinect2_rgb_optical_frame,0.0,0.0,0.0,0.0,0.0,0.0,1.0
1535040267825259613,0,1535040267819797027,kinect2_rgb_optical_frame,kinect2_ir_optical_frame,-0.0519399138017,0.00333959742795,0.00875866802314,-0.00453113942441,-0.00375492295549,0.00308026364555,0.999977940409
1535040267825547730,0,1535040267740758819,world,hand,-0.0928140357137,0.126296088099,1.37489831448,0.0599505491555,-0.162183865905,-0.942220568657,-0.286919772625
1535040267827369157,0,1535040267740767954,world,checkerboard,2.42775273323,0.800492405891,1.53546440601,-0.374935507774,-0.639099121094,-0.600105762482,-0.301411300898
1535040267827378296,0,1535040267740772220,world,kinect2_mocap,0.104177132249,-1.32797980309,1.35415446758,-0.0317751727998,-0.00164286408108,0.0575831793249,-0.997833609581
1535040267827387523,0,1535040267740778173,world,hand,-0.0965736955404,0.127916276455,1.37300181389,0.0589989945292,-0.160268217325,-0.940785050392,-0.292842566967
1535040267827403336,0,1535040267740781511,world,checkerboard,2.42774200439,0.800506651402,1.53547084332,-0.374960958958,-0.639150857925,-0.600067079067,-0.301346898079
1535040267827409954,0,1535040267740784773,world,kinect2_mocap,0.104177504778,-1.32797932625,1.35415375233,-0.0317550972104,-0.00164216780104,0.0575868971646,-0.997834086418
1535040267832022362,0,1535040267831855717,kinect2_link,kinect2_rgb_optical_frame,0.0,0.0,0.0,0.0,0.0,0.0,1.0
1535040267832030710,0,1535040267831855717,kinect2_rgb_optical_frame,kinect2_ir_optical_frame,-0.0519399138017,0.00333959742795,0.00875866802314,-0.00453113942441,-0.00375492295549,0.00308026364555,0.999977940409
1535040267835993513,0,1535040267750953738,world,hand,-0.0999702289701,0.129431724548,1.37125945091,0.060744330287,-0.1606631428,-0.938877940178,-0.298338443041
1535040267838218883,0,1535040267750967141,world,checkerboard,2.42776274681,0.800513386726,1.53547751904,-0.374986290932,-0.639056503773,-0.600092351437,-0.301465243101
1535040267838230066,0,1535040267750973126,world,kinect2_mocap,0.104177057743,-1.32797956467,1.35415399075,-0.0317592322826,-0.00164251029491,0.0575857236981,-0.997833967209
1535040267842083912,0,1535040267841987005,kinect2_link,kinect2_rgb_optical_frame,0.0,0.0,0.0,0.0,0.0,0.0,1.0
1535040267842094983,0,1535040267841987005,kinect2_rgb_optical_frame,kinect2_ir_optical_frame,-0.0519399138017,0.00333959742795,0.00875866802314,-0.00453113942441,-0.00375492295549,0.00308026364555,0.999977940409
1535040267845098762,0,1535040267760311465,world,hand,-0.102887913585,0.130791276693,1.36939907074,0.0618705973029,-0.161468848586,-0.937283158302,-0.302655130625
1535040267846968305,0,1535040267760324023,world,checkerboard,2.42775607109,0.800495862961,1.53546011448,-0.375043392181,-0.639066874981,-0.600069224834,-0.301418274641
1535040267846976058,0,1535040267760330533,world,kinect2_mocap,0.104176580906,-1.32797980309,1.35415422916,-0.0317620784044,-0.00164270424284,0.057585015893,-0.997833967209
1535040267852351695,0,1535040267852071627,kinect2_link,kinect2_rgb_optical_frame,0.0,0.0,0.0,0.0,0.0,0.0,1.0
1535040267852372812,0,1535040267852071627,kinect2_rgb_optical_frame,kinect2_ir_optical_frame,-0.0519399138017,0.00333959742795,0.00875866802314,-0.00453113942441,-0.00375492295549,0.00308026364555,0.999977940409
1535040267855692159,0,1535040267770679304,world,hand,-0.10523301363,0.132052004337,1.36752927303,0.0640093237162,-0.161297798157,-0.936533868313,-0.304614931345
1535040267857619003,0,1535040267770691518,world,checkerboard,2.42778277397,0.800495147705,1.53544950485,-0.37496137619,-0.639001250267,-0.60017734766,-0.301444172859
1535040267857639053,0,1535040267770697724,world,kinect2_mocap,0.104175917804,-1.32797980309,1.35415422916,-0.0317660868168,-0.00164284405764,0.0575837269425,-0.997833848
1535040267865745685,0,1535040267780993746,world,hand,-0.107611753047,0.132992312312,1.36539959908,0.0622696280479,-0.156952098012,-0.934855937958,-0.312302649021
1535040267866329396,0,1535040267862485550,kinect2_link,kinect2_rgb_optical_frame,0.0,0.0,0.0,0.0,0.0,0.0,1.0
1535040267866344511,0,1535040267862485550,kinect2_rgb_optical_frame,kinect2_ir_optical_frame,-0.0519399138017,0.00333959742795,0.00875866802314,-0.00453113942441,-0.00375492295549,0.00308026364555,0.999977940409
1535040267867721273,0,1535040267781009375,world,checkerboard,2.42781043053,0.800489068031,1.53542792797,-0.374968737364,-0.639132797718,-0.600098133087,-0.301313668489
1535040267867731525,0,1535040267781016030,world,kinect2_mocap,0.104175969958,-1.32797932625,1.35415303707,-0.0317476913333,-0.00164219818544,0.0575873441994,-0.997834205627
1535040267867754987,0,1535040267781056571,world,hand,-0.109297119081,0.13383372128,1.36328196526,0.0625031068921,-0.154163017869,-0.934283733368,-0.31534293294
1535040267867761480,0,1535040267781068645,world,checkerboard,2.42780804634,0.800489783287,1.53542220592,-0.374917149544,-0.639099121094,-0.600151956081,-0.301342248917
1535040267867781441,0,1535040267781073107,world,kinect2_mocap,0.104176051915,-1.32797932625,1.35415184498,-0.0317284874618,-0.00164127897006,0.0575917251408,-0.997834563255
1535040267872678700,0,1535040267872588215,kinect2_link,kinect2_rgb_optical_frame,0.0,0.0,0.0,0.0,0.0,0.0,1.0
1535040267872728729,0,1535040267872588215,kinect2_rgb_optical_frame,kinect2_ir_optical_frame,-0.0519399138017,0.00333959742795,0.00875866802314,-0.00453113942441,-0.00375492295549,0.00308026364555,0.999977940409
1535040267875299290,0,1535040267790374427,world,hand,-0.110564485192,0.134594678879,1.36122322083,0.0632762014866,-0.153066441417,-0.933589994907,-0.317767977715
1535040267877937411,0,1535040267790384788,world,checkerboard,2.42780184746,0.800499200821,1.53542053699,-0.374888718128,-0.639135420322,-0.600144147873,-0.301316320896
1535040267877949143,0,1535040267790408897,world,kinect2_mocap,0.104175120592,-1.32798027992,1.3541508913,-0.0317072495818,-0.00164010445587,0.0575960054994,-0.997835040092
1535040267882844573,0,1535040267882667699,kinect2_link,kinect2_rgb_optical_frame,0.0,0.0,0.0,0.0,0.0,0.0,1.0
1535040267882857691,0,1535040267882667699,kinect2_rgb_optical_frame,kinect2_ir_optical_frame,-0.0519399138017,0.00333959742795,0.00875866802314,-0.00453113942441,-0.00375492295549,0.00308026364555,0.999977940409
1535040267885729670,0,1535040267800783088,world,hand,-0.111363664269,0.135237947106,1.35926532745,0.0661379992962,-0.154804572463,-0.932715535164,-0.318909496069
1535040267887982762,0,1535040267800813294,world,checkerboard,2.42776274681,0.8005027771,1.5354218483,-0.374915897846,-0.639193177223,-0.600095152855,-0.301257640123
1535040267887994422,0,1535040267800821467,world,kinect2_mocap,0.104174166918,-1.32798135281,1.35415184498,-0.0317245200276,-0.00164015078917,0.0575924068689,-0.997834682465
1535040267895237044,0,1535040267810088565,world,hand,-0.111575238407,0.135823681951,1.35714221001,0.0680330619216,-0.156113743782,-0.932673215866,-0.3179949224
1535040267896817288,0,1535040267892805113,kinect2_link,kinect2_rgb_optical_frame,0.0,0.0,0.0,0.0,0.0,0.0,1.0
1535040267896909868,0,1535040267892805113,kinect2_rgb_optical_frame,kinect2_ir_optical_frame,-0.0519399138017,0.00333959742795,0.00875866802314,-0.00453113942441,-0.00375492295549,0.00308026364555,0.999977940409
